$GPRMC,162208,A,5041.0343,N,00708.4258,E,0.0,302.9,230913,0.4,E,A*12
$IWEVENT,65538,'Sammeln Start',7.140430,50.683905
$GPRMC,162209,A,5041.0343,N,00708.4258,E,0.0,302.9,230913,0.4,E,A*13
$IWEVENT,65540,'Jetzt rechts sammeln',7.140430,50.683905
$GPRMC,162210,A,5041.0343,N,00708.4258,E,0.0,302.9,230913,0.4,E,A*1B
$GPRMC,162211,A,5041.0343,N,00708.4258,E,0.0,302.9,230913,0.4,E,A*1A
$GPRMC,162212,A,5041.0343,N,00708.4258,E,0.0,302.9,230913,0.4,E,A*19
$GPRMC,162213,A,5041.0343,N,00708.4258,E,0.0,302.9,230913,0.4,E,A*18
$GPRMC,162214,A,5041.0343,N,00708.4259,E,0.0,302.9,230913,0.4,E,A*1E
$GPRMC,162215,A,5041.0343,N,00708.4259,E,0.0,302.9,230913,0.4,E,A*1F
$GPRMC,162216,A,5041.0344,N,00708.4253,E,2.8,302.9,230913,0.4,E,A*1B
$GPRMC,162217,A,5041.0350,N,00708.4237,E,5.2,299.1,230913,0.4,E,A*1B
$GPRMC,162218,A,5041.0359,N,00708.4214,E,7.0,297.5,230913,0.4,E,A*16
$GPRMC,162219,A,5041.0369,N,00708.4184,E,7.9,297.2,230913,0.4,E,A*10
$GPRMC,162220,A,5041.0380,N,00708.4154,E,7.8,299.7,230913,0.4,E,A*1A
$GPRMC,162221,A,5041.0390,N,00708.4128,E,6.5,304.3,230913,0.4,E,A*1C
$GPRMC,162222,A,5041.0400,N,00708.4109,E,4.6,318.3,230913,0.4,E,A*1E
$GPRMC,162223,A,5041.0409,N,00708.4100,E,2.7,318.3,230913,0.4,E,A*18
$GPRMC,162224,A,5041.0414,N,00708.4097,E,0.7,318.3,230913,0.4,E,A*1E
$GPRMC,162225,A,5041.0414,N,00708.4097,E,0.0,318.3,230913,0.4,E,A*18
$IWEVENT,1,'Hier rückwärts',7.140162,50.684023
$GPRMC,162226,A,5041.0414,N,00708.4097,E,0.0,318.3,230913,0.4,E,A*1B
$GPRMC,162227,A,5041.0417,N,00708.4098,E,2.9,318.3,230913,0.4,E,A*1D
$GPRMC,162228,A,5041.0429,N,00708.4102,E,5.5,16.2,230913,0.4,E,A*2A
$GPRMC,162229,A,5041.0447,N,00708.4114,E,7.0,24.5,230913,0.4,E,A*25
$GPRMC,162230,A,5041.0469,N,00708.4132,E,9.2,29.8,230913,0.4,E,A*29
$GPRMC,162231,A,5041.0492,N,00708.4156,E,10.1,36.5,230913,0.4,E,A*16
$GPRMC,162232,A,5041.0515,N,00708.4184,E,10.7,36.3,230913,0.4,E,A*14
$GPRMC,162233,A,5041.0539,N,00708.4212,E,10.7,36.7,230913,0.4,E,A*13
$GPRMC,162234,A,5041.0563,N,00708.4240,E,10.2,36.6,230913,0.4,E,A*18
$GPRMC,162235,A,5041.0586,N,00708.4268,E,9.8,37.1,230913,0.4,E,A*2C
$GPRMC,162236,A,5041.0608,N,00708.4293,E,9.3,34.9,230913,0.4,E,A*2E
$GPRMC,162237,A,5041.0629,N,00708.4317,E,9.1,33.7,230913,0.4,E,A*2A
$GPRMC,162238,A,5041.0651,N,00708.4340,E,9.5,34.3,230913,0.4,E,A*2F
$GPRMC,162239,A,5041.0673,N,00708.4365,E,10.1,34.8,230913,0.4,E,A*1E
$GPRMC,162240,A,5041.0696,N,00708.4391,E,9.8,36.5,230913,0.4,E,A*2E
$GPRMC,162241,A,5041.0718,N,00708.4417,E,9.6,37.5,230913,0.4,E,A*2E
$GPRMC,162242,A,5041.0737,N,00708.4445,E,8.7,46.5,230913,0.4,E,A*21
$GPRMC,162243,A,5041.0752,N,00708.4472,E,7.1,53.3,230913,0.4,E,A*2C
$GPRMC,162244,A,5041.0758,N,00708.4498,E,5.4,79.7,230913,0.4,E,A*2E
$GPRMC,162245,A,5041.0764,N,00708.4518,E,5.7,42.6,230913,0.4,E,A*23
$GPRMC,162246,A,5041.0778,N,00708.4528,E,5.8,6.6,230913,0.4,E,A*11
$GPRMC,162247,A,5041.0794,N,00708.4522,E,5.8,327.9,230913,0.4,E,A*17
$GPRMC,162248,A,5041.0803,N,00708.4506,E,4.2,285.7,230913,0.4,E,A*13
$GPRMC,162249,A,5041.0800,N,00708.4488,E,4.9,242.9,230913,0.4,E,A*18
$GPRMC,162250,A,5041.0791,N,00708.4471,E,4.5,217.6,230913,0.4,E,A*12
$GPRMC,162251,A,5041.0778,N,00708.4459,E,5.4,213.1,230913,0.4,E,A*1D
$GPRMC,162252,A,5041.0760,N,00708.4445,E,7.6,210.9,230913,0.4,E,A*11
$GPRMC,162253,A,5041.0740,N,00708.4428,E,8.6,210.9,230913,0.4,E,A*16
$GPRMC,162254,A,5041.0717,N,00708.4408,E,9.7,213.5,230913,0.4,E,A*1E
$GPRMC,162255,A,5041.0694,N,00708.4384,E,9.8,216.1,230913,0.4,E,A*18
$GPRMC,162256,A,5041.0671,N,00708.4358,E,10.3,215.4,230913,0.4,E,A*24
$GPRMC,162257,A,5041.0647,N,00708.4333,E,10.3,215.0,230913,0.4,E,A*29
$GPRMC,162258,A,5041.0623,N,00708.4309,E,10.2,214.7,230913,0.4,E,A*2A
$GPRMC,162259,A,5041.0600,N,00708.4284,E,10.2,214.5,230913,0.4,E,A*2C
$GPRMC,162300,A,5041.0576,N,00708.4259,E,10.3,215.6,230913,0.4,E,A*20
$GPRMC,162301,A,5041.0552,N,00708.4235,E,10.0,213.9,230913,0.4,E,A*27
$GPRMC,162302,A,5041.0530,N,00708.4211,E,9.8,214.7,230913,0.4,E,A*1F
$GPRMC,162303,A,5041.0509,N,00708.4189,E,7.3,213.3,230913,0.4,E,A*10
$GPRMC,162304,A,5041.0494,N,00708.4171,E,6.0,217.7,230913,0.4,E,A*17
$GPRMC,162305,A,5041.0481,N,00708.4155,E,4.6,215.1,230913,0.4,E,A*14
$GPRMC,162306,A,5041.0472,N,00708.4141,E,3.9,223.3,230913,0.4,E,A*11
$GPRMC,162307,A,5041.0463,N,00708.4125,E,3.9,225.7,230913,0.4,E,A*10
$GPRMC,162308,A,5041.0463,N,00708.4125,E,0.0,225.7,230913,0.4,E,A*15
$GPRMC,162309,A,5041.0463,N,00708.4125,E,0.0,225.7,230913,0.4,E,A*14
$GPRMC,162310,A,5041.0463,N,00708.4125,E,0.0,225.7,230913,0.4,E,A*1C
$GPRMC,162311,A,5041.0463,N,00708.4125,E,0.0,225.7,230913,0.4,E,A*1D
$GPRMC,162312,A,5041.0463,N,00708.4125,E,0.0,225.7,230913,0.4,E,A*1E
$IWEVENT,1,'Hier rückwärts',7.140208,50.684105
$GPRMC,162313,A,5041.0463,N,00708.4125,E,0.0,225.7,230913,0.4,E,A*1F
$GPRMC,162314,A,5041.0463,N,00708.4125,E,0.0,225.7,230913,0.4,E,A*18
$GPRMC,162315,A,5041.0461,N,00708.4120,E,2.6,225.7,230913,0.4,E,A*1A
$GPRMC,162316,A,5041.0454,N,00708.4101,E,5.7,254.7,230913,0.4,E,A*1C
$GPRMC,162317,A,5041.0451,N,00708.4074,E,7.1,265.0,230913,0.4,E,A*1A
$GPRMC,162318,A,5041.0448,N,00708.4042,E,7.4,261.1,230913,0.4,E,A*18
$GPRMC,162319,A,5041.0445,N,00708.4016,E,5.3,252.0,230913,0.4,E,A*11
$GPRMC,162320,A,5041.0438,N,00708.3996,E,4.4,245.2,230913,0.4,E,A*15
$GPRMC,162321,A,5041.0432,N,00708.3980,E,4.0,243.7,230913,0.4,E,A*1E
$GPRMC,162322,A,5041.0425,N,00708.3966,E,3.7,234.1,230913,0.4,E,A*15
$GPRMC,162323,A,5041.0418,N,00708.3954,E,2.9,234.1,230913,0.4,E,A*14
$GPRMC,162324,A,5041.0413,N,00708.3946,E,1.3,234.1,230913,0.4,E,A*12
$GPRMC,162325,A,5041.0413,N,00708.3946,E,0.0,234.1,230913,0.4,E,A*11
$GPRMC,162326,A,5041.0412,N,00708.3941,E,1.8,234.1,230913,0.4,E,A*1D
$GPRMC,162327,A,5041.0408,N,00708.3933,E,2.5,234.1,230913,0.4,E,A*1C
$GPRMC,162328,A,5041.0400,N,00708.3922,E,4.2,216.5,230913,0.4,E,A*1E
$GPRMC,162329,A,5041.0390,N,00708.3913,E,4.4,203.1,230913,0.4,E,A*15
$GPRMC,162330,A,5041.0381,N,00708.3907,E,1.9,203.1,230913,0.4,E,A*10
$GPRMC,162331,A,5041.0381,N,00708.3907,E,0.0,203.1,230913,0.4,E,A*19
$GPRMC,162332,A,5041.0382,N,00708.3907,E,0.8,203.1,230913,0.4,E,A*11
$GPRMC,162333,A,5041.0387,N,00708.3911,E,3.2,27.4,230913,0.4,E,A*2A
$GPRMC,162334,A,5041.0394,N,00708.3911,E,3.2,8.1,230913,0.4,E,A*17
$GPRMC,162335,A,5041.0394,N,00708.3911,E,0.0,8.1,230913,0.4,E,A*17
$GPRMC,162336,A,5041.0394,N,00708.3911,E,0.0,8.1,230913,0.4,E,A*14
$GPRMC,162337,A,5041.0394,N,00708.3911,E,0.0,8.1,230913,0.4,E,A*15
$GPRMC,162338,A,5041.0392,N,00708.3916,E,2.0,8.1,230913,0.4,E,A*19
$GPRMC,162339,A,5041.0393,N,00708.3930,E,4.2,81.8,230913,0.4,E,A*21
$GPRMC,162340,A,5041.0398,N,00708.3946,E,5.2,49.7,230913,0.4,E,A*2F
$GPRMC,162341,A,5041.0409,N,00708.3965,E,5.7,47.7,230913,0.4,E,A*2B
$GPRMC,162342,A,5041.0420,N,00708.3987,E,7.5,51.3,230913,0.4,E,A*2C
$GPRMC,162343,A,5041.0432,N,00708.4016,E,8.5,58.0,230913,0.4,E,A*2D
$GPRMC,162344,A,5041.0440,N,00708.4049,E,7.7,75.4,230913,0.4,E,A*23
$GPRMC,162345,A,5041.0442,N,00708.4080,E,6.9,96.0,230913,0.4,E,A*23
$GPRMC,162346,A,5041.0436,N,00708.4109,E,7.0,116.8,230913,0.4,E,A*1A
$GPRMC,162347,A,5041.0424,N,00708.4135,E,6.6,124.2,230913,0.4,E,A*1B
$GPRMC,162348,A,5041.0413,N,00708.4160,E,7.2,124.7,230913,0.4,E,A*10
$GPRMC,162349,A,5041.0402,N,00708.4185,E,6.8,125.6,230913,0.4,E,A*11
$GPRMC,162350,A,5041.0390,N,00708.4207,E,5.5,124.1,230913,0.4,E,A*14
$GPRMC,162351,A,5041.0383,N,00708.4220,E,3.3,120.7,230913,0.4,E,A*10
$GPRMC,162352,A,5041.0379,N,00708.4228,E,2.6,120.7,230913,0.4,E,A*1A
$GPRMC,162353,A,5041.0376,N,00708.4234,E,1.3,120.7,230913,0.4,E,A*1F
$GPRMC,162354,A,5041.0376,N,00708.4234,E,0.0,120.7,230913,0.4,E,A*1A
$GPRMC,162355,A,5041.0376,N,00708.4234,E,0.0,120.7,230913,0.4,E,A*1B
$GPRMC,162356,A,5041.0376,N,00708.4234,E,0.0,120.7,230913,0.4,E,A*18
$GPRMC,162357,A,5041.0376,N,00708.4234,E,0.0,120.7,230913,0.4,E,A*19
$IWEVENT,65539,'Transfer Start',7.140390,50.683960
$GPRMC,162358,A,5041.0376,N,00708.4234,E,0.0,120.7,230913,0.4,E,A*16
$GPRMC,162359,A,5041.0376,N,00708.4234,E,0.0,120.7,230913,0.4,E,A*17
$IWEVENT,65538,'Sammeln Start',7.140390,50.683960
$GPRMC,162400,A,5041.0376,N,00708.4234,E,0.0,120.7,230913,0.4,E,A*1C
$IWEVENT,65539,'Transfer Start',7.140390,50.683960
$GPRMC,162401,A,5041.0376,N,00708.4234,E,0.0,120.7,230913,0.4,E,A*1D
$GPRMC,162402,A,5041.0376,N,00708.4234,E,0.0,120.7,230913,0.4,E,A*1E
$GPRMC,162403,A,5041.0376,N,00708.4234,E,0.0,120.7,230913,0.4,E,A*1F
$GPRMC,162404,A,5041.0376,N,00708.4234,E,0.0,120.7,230913,0.4,E,A*18
$GPRMC,162405,A,5041.0376,N,00708.4234,E,0.0,120.7,230913,0.4,E,A*19
$GPRMC,162406,A,5041.0376,N,00708.4234,E,0.0,120.7,230913,0.4,E,A*1A
$GPRMC,162407,A,5041.0376,N,00708.4234,E,0.0,120.7,230913,0.4,E,A*1B
$GPRMC,162408,A,5041.0375,N,00708.4235,E,0.2,120.7,230913,0.4,E,A*14
$GPRMC,162409,A,5041.0375,N,00708.4235,E,0.0,120.7,230913,0.4,E,A*17
$GPRMC,162410,A,5041.0375,N,00708.4235,E,0.0,120.7,230913,0.4,E,A*1F
$GPRMC,162411,A,5041.0375,N,00708.4235,E,0.0,120.7,230913,0.4,E,A*1E
$GPRMC,162412,A,5041.0375,N,00708.4235,E,0.0,120.7,230913,0.4,E,A*1D
$GPRMC,162413,A,5041.0375,N,00708.4235,E,0.0,120.7,230913,0.4,E,A*1C
$GPRMC,162414,A,5041.0375,N,00708.4235,E,0.0,120.7,230913,0.4,E,A*1B
$GPRMC,162415,A,5041.0375,N,00708.4235,E,0.0,120.7,230913,0.4,E,A*1A
$GPRMC,162416,A,5041.0375,N,00708.4235,E,0.0,120.7,230913,0.4,E,A*19
$GPRMC,162417,A,5041.0375,N,00708.4235,E,0.0,120.7,230913,0.4,E,A*18
$GPRMC,162418,A,5041.0375,N,00708.4235,E,0.0,120.7,230913,0.4,E,A*17
$GPRMC,162419,A,5041.0375,N,00708.4235,E,0.0,120.7,230913,0.4,E,A*16
$GPRMC,162420,A,5041.0375,N,00708.4235,E,0.0,120.7,230913,0.4,E,A*1C
$GPRMC,162421,A,5041.0375,N,00708.4235,E,0.0,120.7,230913,0.4,E,A*1D
$GPRMC,162422,A,5041.0375,N,00708.4235,E,0.0,120.7,230913,0.4,E,A*1E
$GPRMC,162423,A,5041.0375,N,00708.4235,E,0.0,120.7,230913,0.4,E,A*1F
$GPRMC,162424,A,5041.0375,N,00708.4235,E,0.0,120.7,230913,0.4,E,A*18
$GPRMC,162425,A,5041.0375,N,00708.4235,E,0.0,120.7,230913,0.4,E,A*19
$GPRMC,162426,A,5041.0375,N,00708.4235,E,0.0,120.7,230913,0.4,E,A*1A
$GPRMC,162427,A,5041.0375,N,00708.4235,E,0.0,120.7,230913,0.4,E,A*1B
$GPRMC,162428,A,5041.0375,N,00708.4235,E,0.0,120.7,230913,0.4,E,A*14
$GPRMC,162429,A,5041.0375,N,00708.4235,E,0.0,120.7,230913,0.4,E,A*15
$GPRMC,162430,A,5041.0375,N,00708.4235,E,0.0,120.7,230913,0.4,E,A*1D
$GPRMC,162431,A,5041.0375,N,00708.4235,E,0.0,120.7,230913,0.4,E,A*1C
$GPRMC,162432,A,5041.0375,N,00708.4235,E,0.0,120.7,230913,0.4,E,A*1F
$GPRMC,162433,A,5041.0375,N,00708.4235,E,0.0,120.7,230913,0.4,E,A*1E
$GPRMC,162434,A,5041.0375,N,00708.4235,E,0.0,120.7,230913,0.4,E,A*19
$IWEVENT,1,'Event 11',7.140392,50.683958
$GPRMC,162435,A,5041.0375,N,00708.4235,E,0.0,120.7,230913,0.4,E,A*18
$GPRMC,162436,A,5041.0375,N,00708.4235,E,0.0,120.7,230913,0.4,E,A*1B
$GPRMC,162437,A,5041.0375,N,00708.4235,E,0.0,120.7,230913,0.4,E,A*1A
$GPRMC,162438,A,5041.0375,N,00708.4235,E,0.0,120.7,230913,0.4,E,A*15
$GPRMC,162439,A,5041.0375,N,00708.4235,E,0.0,120.7,230913,0.4,E,A*14
$GPRMC,162440,A,5041.0375,N,00708.4236,E,0.2,120.7,230913,0.4,E,A*1B
$GPRMC,162441,A,5041.0375,N,00708.4236,E,0.0,120.7,230913,0.4,E,A*18
$GPRMC,162442,A,5041.0375,N,00708.4236,E,0.0,120.7,230913,0.4,E,A*1B
$GPRMC,162443,A,5041.0375,N,00708.4236,E,0.0,120.7,230913,0.4,E,A*1A
$GPRMC,162444,A,5041.0375,N,00708.4236,E,0.0,120.7,230913,0.4,E,A*1D
$GPRMC,162445,A,5041.0375,N,00708.4236,E,0.0,120.7,230913,0.4,E,A*1C
$GPRMC,162446,A,5041.0375,N,00708.4236,E,0.0,120.7,230913,0.4,E,A*1F
$GPRMC,162447,A,5041.0375,N,00708.4236,E,0.0,120.7,230913,0.4,E,A*1E
$GPRMC,162448,A,5041.0374,N,00708.4237,E,0.2,120.7,230913,0.4,E,A*13
$GPRMC,162449,A,5041.0373,N,00708.4237,E,0.1,120.7,230913,0.4,E,A*16
$GPRMC,162450,A,5041.0373,N,00708.4237,E,0.0,120.7,230913,0.4,E,A*1F
$GPRMC,162451,A,5041.0373,N,00708.4237,E,0.0,120.7,230913,0.4,E,A*1E
$GPRMC,162452,A,5041.0373,N,00708.4237,E,0.0,120.7,230913,0.4,E,A*1D
$GPRMC,162453,A,5041.0373,N,00708.4237,E,0.0,120.7,230913,0.4,E,A*1C
$GPRMC,162454,A,5041.0373,N,00708.4237,E,0.0,120.7,230913,0.4,E,A*1B
$GPRMC,162455,A,5041.0373,N,00708.4237,E,0.0,120.7,230913,0.4,E,A*1A
$GPRMC,162456,A,5041.0373,N,00708.4237,E,0.0,120.7,230913,0.4,E,A*19
$GPRMC,162457,A,5041.0373,N,00708.4237,E,0.0,120.7,230913,0.4,E,A*18
$GPRMC,162458,A,5041.0373,N,00708.4237,E,0.0,120.7,230913,0.4,E,A*17
$GPRMC,162459,A,5041.0373,N,00708.4237,E,0.0,120.7,230913,0.4,E,A*16
$GPRMC,162500,A,5041.0373,N,00708.4237,E,0.0,120.7,230913,0.4,E,A*1B
$GPRMC,162501,A,5041.0373,N,00708.4237,E,0.0,120.7,230913,0.4,E,A*1A
$GPRMC,162502,A,5041.0373,N,00708.4237,E,0.0,120.7,230913,0.4,E,A*19
$GPRMC,162503,A,5041.0373,N,00708.4237,E,0.0,120.7,230913,0.4,E,A*18
$GPRMC,162504,A,5041.0373,N,00708.4237,E,0.0,120.7,230913,0.4,E,A*1F
$GPRMC,162505,A,5041.0373,N,00708.4237,E,0.0,120.7,230913,0.4,E,A*1E
$GPRMC,162506,A,5041.0373,N,00708.4237,E,0.0,120.7,230913,0.4,E,A*1D
$GPRMC,162507,A,5041.0373,N,00708.4237,E,0.0,120.7,230913,0.4,E,A*1C
$GPRMC,162508,A,5041.0373,N,00708.4237,E,0.0,120.7,230913,0.4,E,A*13
$GPRMC,162509,A,5041.0373,N,00708.4237,E,0.0,120.7,230913,0.4,E,A*12
$GPRMC,162510,A,5041.0373,N,00708.4237,E,0.0,120.7,230913,0.4,E,A*1A
$GPRMC,162511,A,5041.0373,N,00708.4237,E,0.0,120.7,230913,0.4,E,A*1B
$GPRMC,162512,A,5041.0373,N,00708.4236,E,0.2,120.7,230913,0.4,E,A*1B
$GPRMC,162513,A,5041.0373,N,00708.4236,E,0.0,120.7,230913,0.4,E,A*18
$GPRMC,162514,A,5041.0373,N,00708.4236,E,0.0,120.7,230913,0.4,E,A*1F
$GPRMC,162515,A,5041.0373,N,00708.4236,E,0.0,120.7,230913,0.4,E,A*1E
$GPRMC,162516,A,5041.0373,N,00708.4236,E,0.0,120.7,230913,0.4,E,A*1D
$GPRMC,162517,A,5041.0373,N,00708.4236,E,0.0,120.7,230913,0.4,E,A*1C
$GPRMC,162518,A,5041.0373,N,00708.4236,E,0.0,120.7,230913,0.4,E,A*13
$GPRMC,162519,A,5041.0373,N,00708.4236,E,0.0,120.7,230913,0.4,E,A*12
$GPRMC,162520,A,5041.0373,N,00708.4236,E,0.0,120.7,230913,0.4,E,A*18
$GPRMC,162521,A,5041.0373,N,00708.4236,E,0.0,120.7,230913,0.4,E,A*19
$GPRMC,162522,A,5041.0373,N,00708.4236,E,0.0,120.7,230913,0.4,E,A*1A
$GPRMC,162523,A,5041.0373,N,00708.4236,E,0.0,120.7,230913,0.4,E,A*1B
$GPRMC,162524,A,5041.0373,N,00708.4236,E,0.0,120.7,230913,0.4,E,A*1C
$GPRMC,162525,A,5041.0373,N,00708.4236,E,0.0,120.7,230913,0.4,E,A*1D
$GPRMC,162526,A,5041.0373,N,00708.4236,E,0.0,120.7,230913,0.4,E,A*1E
$GPRMC,162527,A,5041.0373,N,00708.4236,E,0.0,120.7,230913,0.4,E,A*1F
$GPRMC,162528,A,5041.0373,N,00708.4236,E,0.0,120.7,230913,0.4,E,A*10
$GPRMC,162529,A,5041.0373,N,00708.4236,E,0.0,120.7,230913,0.4,E,A*11
$GPRMC,162530,A,5041.0373,N,00708.4236,E,0.0,120.7,230913,0.4,E,A*19
$GPRMC,162531,A,5041.0373,N,00708.4236,E,0.0,120.7,230913,0.4,E,A*18
$GPRMC,162532,A,5041.0373,N,00708.4236,E,0.0,120.7,230913,0.4,E,A*1B
$GPRMC,162533,A,5041.0373,N,00708.4236,E,0.0,120.7,230913,0.4,E,A*1A
$GPRMC,162534,A,5041.0373,N,00708.4236,E,0.0,120.7,230913,0.4,E,A*1D
$GPRMC,162535,A,5041.0373,N,00708.4236,E,0.0,120.7,230913,0.4,E,A*1C
$GPRMC,162536,A,5041.0373,N,00708.4236,E,0.0,120.7,230913,0.4,E,A*1F
$GPRMC,162537,A,5041.0373,N,00708.4236,E,0.0,120.7,230913,0.4,E,A*1E
$GPRMC,162538,A,5041.0373,N,00708.4236,E,0.0,120.7,230913,0.4,E,A*11
$GPRMC,162539,A,5041.0373,N,00708.4236,E,0.0,120.7,230913,0.4,E,A*10
$GPRMC,162540,A,5041.0373,N,00708.4236,E,0.0,120.7,230913,0.4,E,A*1E
$GPRMC,162541,A,5041.0373,N,00708.4236,E,0.0,120.7,230913,0.4,E,A*1F
$GPRMC,162542,A,5041.0373,N,00708.4236,E,0.0,120.7,230913,0.4,E,A*1C
$GPRMC,162543,A,5041.0373,N,00708.4236,E,0.0,120.7,230913,0.4,E,A*1D
$GPRMC,162544,A,5041.0373,N,00708.4236,E,0.0,120.7,230913,0.4,E,A*1A
$GPRMC,162545,A,5041.0373,N,00708.4236,E,0.0,120.7,230913,0.4,E,A*1B
$GPRMC,162546,A,5041.0373,N,00708.4236,E,0.0,120.7,230913,0.4,E,A*18
$GPRMC,162547,A,5041.0373,N,00708.4236,E,0.0,120.7,230913,0.4,E,A*19
$GPRMC,162548,A,5041.0373,N,00708.4236,E,0.0,120.7,230913,0.4,E,A*16
$GPRMC,162549,A,5041.0373,N,00708.4236,E,0.0,120.7,230913,0.4,E,A*17
$GPRMC,162550,A,5041.0373,N,00708.4236,E,0.0,120.7,230913,0.4,E,A*1F
$GPRMC,162551,A,5041.0373,N,00708.4236,E,0.0,120.7,230913,0.4,E,A*1E
$GPRMC,162552,A,5041.0373,N,00708.4236,E,0.0,120.7,230913,0.4,E,A*1D
$GPRMC,162553,A,5041.0373,N,00708.4236,E,0.0,120.7,230913,0.4,E,A*1C
$GPRMC,162554,A,5041.0373,N,00708.4236,E,0.0,120.7,230913,0.4,E,A*1B
$GPRMC,162555,A,5041.0373,N,00708.4236,E,0.0,120.7,230913,0.4,E,A*1A
$GPRMC,162556,A,5041.0373,N,00708.4236,E,0.0,120.7,230913,0.4,E,A*19
$GPRMC,162557,A,5041.0373,N,00708.4236,E,0.0,120.7,230913,0.4,E,A*18
$GPRMC,162558,A,5041.0373,N,00708.4237,E,0.1,120.7,230913,0.4,E,A*17
$GPRMC,162559,A,5041.0373,N,00708.4237,E,0.3,120.7,230913,0.4,E,A*14
$GPRMC,162600,A,5041.0373,N,00708.4237,E,0.0,120.7,230913,0.4,E,A*18
$GPRMC,162601,A,5041.0373,N,00708.4237,E,0.0,120.7,230913,0.4,E,A*19
$GPRMC,162602,A,5041.0373,N,00708.4237,E,0.0,120.7,230913,0.4,E,A*1A
$GPRMC,162603,A,5041.0371,N,00708.4237,E,0.2,120.7,230913,0.4,E,A*1B
$GPRMC,162604,A,5041.0371,N,00708.4237,E,0.0,120.7,230913,0.4,E,A*1E
$GPRMC,162605,A,5041.0371,N,00708.4237,E,0.1,120.7,230913,0.4,E,A*1E
$GPRMC,162606,A,5041.0371,N,00708.4237,E,0.0,120.7,230913,0.4,E,A*1C
$GPRMC,162607,A,5041.0371,N,00708.4237,E,0.0,120.7,230913,0.4,E,A*1D
$GPRMC,162608,A,5041.0371,N,00708.4237,E,0.0,120.7,230913,0.4,E,A*12
$GPRMC,162609,A,5041.0371,N,00708.4237,E,0.0,120.7,230913,0.4,E,A*13
$GPRMC,162610,A,5041.0371,N,00708.4237,E,0.0,120.7,230913,0.4,E,A*1B
$GPRMC,162611,A,5041.0371,N,00708.4237,E,0.0,120.7,230913,0.4,E,A*1A
$GPRMC,162612,A,5041.0371,N,00708.4237,E,0.0,120.7,230913,0.4,E,A*19
$GPRMC,162613,A,5041.0371,N,00708.4237,E,0.0,120.7,230913,0.4,E,A*18
$GPRMC,162614,A,5041.0371,N,00708.4237,E,0.0,120.7,230913,0.4,E,A*1F
$GPRMC,162615,A,5041.0371,N,00708.4237,E,0.0,120.7,230913,0.4,E,A*1E
$GPRMC,162616,A,5041.0371,N,00708.4237,E,0.0,120.7,230913,0.4,E,A*1D
$GPRMC,162617,A,5041.0371,N,00708.4237,E,0.0,120.7,230913,0.4,E,A*1C
$GPRMC,162618,A,5041.0371,N,00708.4237,E,0.0,120.7,230913,0.4,E,A*13
$GPRMC,162619,A,5041.0371,N,00708.4237,E,0.0,120.7,230913,0.4,E,A*12
$GPRMC,162620,A,5041.0371,N,00708.4237,E,0.0,120.7,230913,0.4,E,A*18
$GPRMC,162621,A,5041.0371,N,00708.4237,E,0.0,120.7,230913,0.4,E,A*19
$GPRMC,162622,A,5041.0371,N,00708.4237,E,0.0,120.7,230913,0.4,E,A*1A
$GPRMC,162623,A,5041.0371,N,00708.4237,E,0.0,120.7,230913,0.4,E,A*1B
$GPRMC,162624,A,5041.0371,N,00708.4237,E,0.0,120.7,230913,0.4,E,A*1C
$GPRMC,162625,A,5041.0371,N,00708.4237,E,0.0,120.7,230913,0.4,E,A*1D
$GPRMC,162626,A,5041.0371,N,00708.4237,E,0.0,120.7,230913,0.4,E,A*1E
$GPRMC,162627,A,5041.0371,N,00708.4237,E,0.0,120.7,230913,0.4,E,A*1F
$GPRMC,162628,A,5041.0371,N,00708.4237,E,0.0,120.7,230913,0.4,E,A*10
$GPRMC,162629,A,5041.0371,N,00708.4237,E,0.0,120.7,230913,0.4,E,A*11
$GPRMC,162630,A,5041.0371,N,00708.4237,E,0.0,120.7,230913,0.4,E,A*19
$GPRMC,162631,A,5041.0371,N,00708.4237,E,0.0,120.7,230913,0.4,E,A*18
$GPRMC,162632,A,5041.0371,N,00708.4237,E,0.0,120.7,230913,0.4,E,A*1B
$GPRMC,162633,A,5041.0371,N,00708.4237,E,0.0,120.7,230913,0.4,E,A*1A
$GPRMC,162634,A,5041.0371,N,00708.4237,E,0.0,120.7,230913,0.4,E,A*1D
$GPRMC,162635,A,5041.0371,N,00708.4237,E,0.0,120.7,230913,0.4,E,A*1C
$GPRMC,162636,A,5041.0369,N,00708.4240,E,1.3,120.7,230913,0.4,E,A*14
$GPRMC,162637,A,5041.0369,N,00708.4240,E,0.0,120.7,230913,0.4,E,A*17
$GPRMC,162638,A,5041.0369,N,00708.4240,E,0.2,120.7,230913,0.4,E,A*1A
$GPRMC,162639,A,5041.0369,N,00708.4240,E,0.0,120.7,230913,0.4,E,A*19
$GPRMC,162640,A,5041.0369,N,00708.4240,E,0.0,120.7,230913,0.4,E,A*17
$GPRMC,162641,A,5041.0369,N,00708.4242,E,0.7,120.7,230913,0.4,E,A*13
$GPRMC,162642,A,5041.0369,N,00708.4243,E,0.4,120.7,230913,0.4,E,A*12
$GPRMC,162643,A,5041.0369,N,00708.4243,E,0.0,120.7,230913,0.4,E,A*17
$GPRMC,162644,A,5041.0369,N,00708.4243,E,0.0,120.7,230913,0.4,E,A*10
$GPRMC,162645,A,5041.0369,N,00708.4243,E,0.0,120.7,230913,0.4,E,A*11
$GPRMC,162646,A,5041.0369,N,00708.4243,E,0.0,120.7,230913,0.4,E,A*12
$GPRMC,162647,A,5041.0369,N,00708.4243,E,0.0,120.7,230913,0.4,E,A*13
$GPRMC,162648,A,5041.0369,N,00708.4243,E,0.0,120.7,230913,0.4,E,A*1C
$GPRMC,162649,A,5041.0369,N,00708.4243,E,0.0,120.7,230913,0.4,E,A*1D
$GPRMC,162650,A,5041.0369,N,00708.4243,E,0.0,120.7,230913,0.4,E,A*15
$GPRMC,162651,A,5041.0369,N,00708.4243,E,0.0,120.7,230913,0.4,E,A*14
$GPRMC,162652,A,5041.0369,N,00708.4243,E,0.0,120.7,230913,0.4,E,A*17
$GPRMC,162653,A,5041.0369,N,00708.4243,E,0.0,120.7,230913,0.4,E,A*16
$GPRMC,162654,A,5041.0369,N,00708.4243,E,0.0,120.7,230913,0.4,E,A*11
$GPRMC,162655,A,5041.0369,N,00708.4243,E,0.0,120.7,230913,0.4,E,A*10
$GPRMC,162656,A,5041.0369,N,00708.4243,E,0.0,120.7,230913,0.4,E,A*13
$GPRMC,162657,A,5041.0369,N,00708.4243,E,0.0,120.7,230913,0.4,E,A*12
$GPRMC,162658,A,5041.0369,N,00708.4243,E,0.0,120.7,230913,0.4,E,A*1D
$GPRMC,162659,A,5041.0369,N,00708.4243,E,0.0,120.7,230913,0.4,E,A*1C
$GPRMC,162700,A,5041.0369,N,00708.4243,E,0.0,120.7,230913,0.4,E,A*11
$GPRMC,162701,A,5041.0369,N,00708.4243,E,0.0,120.7,230913,0.4,E,A*10
$GPRMC,162702,A,5041.0369,N,00708.4243,E,0.0,120.7,230913,0.4,E,A*13
$GPRMC,162703,A,5041.0369,N,00708.4243,E,0.0,120.7,230913,0.4,E,A*12
$GPRMC,162704,A,5041.0368,N,00708.4245,E,0.2,120.7,230913,0.4,E,A*10
$GPRMC,162705,A,5041.0368,N,00708.4245,E,0.0,120.7,230913,0.4,E,A*13
$GPRMC,162706,A,5041.0368,N,00708.4245,E,0.0,120.7,230913,0.4,E,A*10
$GPRMC,162707,A,5041.0368,N,00708.4245,E,0.0,120.7,230913,0.4,E,A*11
$GPRMC,162708,A,5041.0368,N,00708.4245,E,0.0,120.7,230913,0.4,E,A*1E
$GPRMC,162709,A,5041.0368,N,00708.4245,E,0.0,120.7,230913,0.4,E,A*1F
$GPRMC,162710,A,5041.0368,N,00708.4245,E,0.0,120.7,230913,0.4,E,A*17
$GPRMC,162711,A,5041.0367,N,00708.4245,E,0.3,120.7,230913,0.4,E,A*1A
$GPRMC,162712,A,5041.0367,N,00708.4245,E,0.0,120.7,230913,0.4,E,A*1A
$GPRMC,162713,A,5041.0367,N,00708.4245,E,0.0,120.7,230913,0.4,E,A*1B
$GPRMC,162714,A,5041.0366,N,00708.4246,E,0.2,120.7,230913,0.4,E,A*1C
$GPRMC,162715,A,5041.0366,N,00708.4246,E,0.0,120.7,230913,0.4,E,A*1F
$GPRMC,162716,A,5041.0366,N,00708.4246,E,0.0,120.7,230913,0.4,E,A*1C
$GPRMC,162717,A,5041.0366,N,00708.4246,E,0.0,120.7,230913,0.4,E,A*1D
$GPRMC,162718,A,5041.0366,N,00708.4246,E,0.0,120.7,230913,0.4,E,A*12
$GPRMC,162719,A,5041.0366,N,00708.4246,E,0.0,120.7,230913,0.4,E,A*13
$GPRMC,162720,A,5041.0366,N,00708.4246,E,0.0,120.7,230913,0.4,E,A*19
$GPRMC,162721,A,5041.0366,N,00708.4246,E,0.0,120.7,230913,0.4,E,A*18
$GPRMC,162722,A,5041.0366,N,00708.4246,E,0.0,120.7,230913,0.4,E,A*1B
$GPRMC,162723,A,5041.0366,N,00708.4246,E,0.0,120.7,230913,0.4,E,A*1A
$GPRMC,162724,A,5041.0366,N,00708.4246,E,0.0,120.7,230913,0.4,E,A*1D
$GPRMC,162725,A,5041.0366,N,00708.4246,E,0.0,120.7,230913,0.4,E,A*1C
$GPRMC,162726,A,5041.0366,N,00708.4246,E,0.0,120.7,230913,0.4,E,A*1F
$GPRMC,162727,A,5041.0366,N,00708.4246,E,0.0,120.7,230913,0.4,E,A*1E
$GPRMC,162728,A,5041.0366,N,00708.4246,E,0.0,120.7,230913,0.4,E,A*11
$GPRMC,162729,A,5041.0366,N,00708.4246,E,0.0,120.7,230913,0.4,E,A*10
$GPRMC,162730,A,5041.0366,N,00708.4246,E,0.0,120.7,230913,0.4,E,A*18
$GPRMC,162731,A,5041.0366,N,00708.4246,E,0.0,120.7,230913,0.4,E,A*19
$GPRMC,162732,A,5041.0366,N,00708.4246,E,0.0,120.7,230913,0.4,E,A*1A
$GPRMC,162733,A,5041.0366,N,00708.4246,E,0.0,120.7,230913,0.4,E,A*1B
$GPRMC,162734,A,5041.0366,N,00708.4246,E,0.0,120.7,230913,0.4,E,A*1C
$GPRMC,162735,A,5041.0366,N,00708.4246,E,0.0,120.7,230913,0.4,E,A*1D
$GPRMC,162736,A,5041.0366,N,00708.4246,E,0.0,120.7,230913,0.4,E,A*1E
$GPRMC,162737,A,5041.0366,N,00708.4246,E,0.0,120.7,230913,0.4,E,A*1F
$GPRMC,162738,A,5041.0366,N,00708.4246,E,0.0,120.7,230913,0.4,E,A*10
$GPRMC,162739,A,5041.0366,N,00708.4246,E,0.0,120.7,230913,0.4,E,A*11
$GPRMC,162740,A,5041.0366,N,00708.4246,E,0.0,120.7,230913,0.4,E,A*1F
$GPRMC,162741,A,5041.0366,N,00708.4246,E,0.0,120.7,230913,0.4,E,A*1E
$GPRMC,162742,A,5041.0366,N,00708.4246,E,0.0,120.7,230913,0.4,E,A*1D
$GPRMC,162743,A,5041.0365,N,00708.4247,E,0.3,120.7,230913,0.4,E,A*1D
$GPRMC,162744,A,5041.0365,N,00708.4250,E,0.4,120.7,230913,0.4,E,A*1B
$IWEVENT,1,'ALLE EINSTEIGEN ZURÜCK ZUR RUSSISCHEN BOTSCHAFT',7.140417,50.683942
$GPRMC,162745,A,5041.0365,N,00708.4250,E,0.0,120.7,230913,0.4,E,A*1E
$GPRMC,162746,A,5041.0365,N,00708.4250,E,0.0,120.7,230913,0.4,E,A*1D
$GPRMC,162747,A,5041.0365,N,00708.4250,E,0.0,120.7,230913,0.4,E,A*1C
$GPRMC,162748,A,5041.0365,N,00708.4250,E,0.0,120.7,230913,0.4,E,A*13
$GPRMC,162749,A,5041.0363,N,00708.4256,E,3.0,110.8,230913,0.4,E,A*1D
$GPRMC,162750,A,5041.0358,N,00708.4269,E,3.9,120.5,230913,0.4,E,A*16
$GPRMC,162751,A,5041.0351,N,00708.4286,E,5.5,116.9,230913,0.4,E,A*1C
$GPRMC,162752,A,5041.0342,N,00708.4310,E,6.8,117.4,230913,0.4,E,A*11
$GPRMC,162753,A,5041.0335,N,00708.4337,E,6.8,109.2,230913,0.4,E,A*1C
$GPRMC,162754,A,5041.0328,N,00708.4361,E,5.8,120.9,230913,0.4,E,A*17
$GPRMC,162755,A,5041.0319,N,00708.4377,E,4.4,136.9,230913,0.4,E,A*19
$GPRMC,162756,A,5041.0307,N,00708.4383,E,5.1,180.0,230913,0.4,E,A*1E
$GPRMC,162757,A,5041.0294,N,00708.4378,E,4.8,204.3,230913,0.4,E,A*14
$GPRMC,162758,A,5041.0283,N,00708.4365,E,5.6,222.9,230913,0.4,E,A*10
$GPRMC,162759,A,5041.0269,N,00708.4344,E,8.4,223.2,230913,0.4,E,A*13
$GPRMC,162800,A,5041.0250,N,00708.4309,E,11.0,229.0,230913,0.4,E,A*27
$GPRMC,162801,A,5041.0221,N,00708.4263,E,16.3,223.3,230913,0.4,E,A*20
$GPRMC,162802,A,5041.0187,N,00708.4211,E,16.8,224.5,230913,0.4,E,A*23
$GPRMC,162803,A,5041.0153,N,00708.4160,E,16.7,224.2,230913,0.4,E,A*26
$GPRMC,162804,A,5041.0116,N,00708.4105,E,19.2,225.1,230913,0.4,E,A*2B
$GPRMC,162805,A,5041.0076,N,00708.4041,E,20.9,224.7,230913,0.4,E,A*2A
$GPRMC,162806,A,5041.0033,N,00708.3975,E,22.4,225.0,230913,0.4,E,A*28
$GPRMC,162807,A,5040.9988,N,00708.3906,E,22.2,224.1,230913,0.4,E,A*2A
$GPRMC,162808,A,5040.9941,N,00708.3837,E,22.9,223.9,230913,0.4,E,A*27
$GPRMC,162809,A,5040.9894,N,00708.3765,E,23.1,225.2,230913,0.4,E,A*23
$GPRMC,162810,A,5040.9849,N,00708.3689,E,23.2,228.8,230913,0.4,E,A*2C
$GPRMC,162811,A,5040.9806,N,00708.3609,E,23.2,232.8,230913,0.4,E,A*25
$GPRMC,162812,A,5040.9763,N,00708.3529,E,23.5,229.0,230913,0.4,E,A*2E
$GPRMC,162813,A,5040.9718,N,00708.3455,E,22.7,224.9,230913,0.4,E,A*2E
$GPRMC,162814,A,5040.9669,N,00708.3391,E,23.0,215.4,230913,0.4,E,A*28
$GPRMC,162815,A,5040.9618,N,00708.3333,E,22.6,215.8,230913,0.4,E,A*2C
$GPRMC,162816,A,5040.9567,N,00708.3274,E,22.6,216.2,230913,0.4,E,A*2F
$GPRMC,162817,A,5040.9516,N,00708.3214,E,22.5,216.0,230913,0.4,E,A*2F
$GPRMC,162818,A,5040.9466,N,00708.3155,E,22.3,216.9,230913,0.4,E,A*2F
$GPRMC,162819,A,5040.9417,N,00708.3097,E,21.7,216.9,230913,0.4,E,A*20
$GPRMC,162820,A,5040.9370,N,00708.3038,E,20.7,218.8,230913,0.4,E,A*27
$GPRMC,162821,A,5040.9326,N,00708.2980,E,20.6,219.3,230913,0.4,E,A*25
$GPRMC,162822,A,5040.9283,N,00708.2921,E,20.1,221.6,230913,0.4,E,A*2A
$GPRMC,162823,A,5040.9242,N,00708.2863,E,19.6,222.8,230913,0.4,E,A*21
$GPRMC,162824,A,5040.9204,N,00708.2803,E,17.8,227.6,230913,0.4,E,A*29
$GPRMC,162825,A,5040.9172,N,00708.2745,E,16.5,230.6,230913,0.4,E,A*2D
$GPRMC,162826,A,5040.9143,N,00708.2692,E,15.2,230.1,230913,0.4,E,A*24
$GPRMC,162827,A,5040.9123,N,00708.2642,E,12.4,247.8,230913,0.4,E,A*26
$GPRMC,162828,A,5040.9114,N,00708.2591,E,11.6,259.8,230913,0.4,E,A*2E
$GPRMC,162829,A,5040.9115,N,00708.2544,E,10.3,284.3,230913,0.4,E,A*29
$GPRMC,162830,A,5040.9130,N,00708.2502,E,11.3,311.6,230913,0.4,E,A*2D
$GPRMC,162831,A,5040.9155,N,00708.2462,E,13.6,316.1,230913,0.4,E,A*2F
$GPRMC,162832,A,5040.9186,N,00708.2417,E,15.5,318.0,230913,0.4,E,A*2A
$GPRMC,162833,A,5040.9221,N,00708.2367,E,17.1,318.0,230913,0.4,E,A*23
$GPRMC,162834,A,5040.9258,N,00708.2314,E,18.4,317.8,230913,0.4,E,A*23
$GPRMC,162835,A,5040.9299,N,00708.2260,E,19.1,317.4,230913,0.4,E,A*25
$GPRMC,162836,A,5040.9338,N,00708.2204,E,19.3,315.3,230913,0.4,E,A*29
$GPRMC,162837,A,5040.9374,N,00708.2142,E,19.6,310.2,230913,0.4,E,A*20
$GPRMC,162838,A,5040.9406,N,00708.2072,E,19.6,302.3,230913,0.4,E,A*2D
$GPRMC,162839,A,5040.9434,N,00708.1997,E,19.6,299.4,230913,0.4,E,A*28
$GPRMC,162840,A,5040.9463,N,00708.1923,E,19.6,301.2,230913,0.4,E,A*2D
$GPRMC,162841,A,5040.9492,N,00708.1850,E,19.5,301.0,230913,0.4,E,A*26
$GPRMC,162842,A,5040.9521,N,00708.1776,E,19.1,299.2,230913,0.4,E,A*21
$GPRMC,162843,A,5040.9545,N,00708.1705,E,18.0,298.4,230913,0.4,E,A*21
$GPRMC,162844,A,5040.9570,N,00708.1635,E,18.2,297.2,230913,0.4,E,A*29
$GPRMC,162845,A,5040.9593,N,00708.1563,E,18.5,298.4,230913,0.4,E,A*2B
$GPRMC,162846,A,5040.9616,N,00708.1491,E,18.3,301.6,230913,0.4,E,A*2F
$GPRMC,162847,A,5040.9646,N,00708.1423,E,18.9,307.4,230913,0.4,E,A*2C
$GPRMC,162848,A,5040.9681,N,00708.1361,E,19.2,315.3,230913,0.4,E,A*27
$GPRMC,162849,A,5040.9720,N,00708.1304,E,19.0,320.4,230913,0.4,E,A*2C
$GPRMC,162850,A,5040.9762,N,00708.1255,E,19.1,327.7,230913,0.4,E,A*22
$GPRMC,162851,A,5040.9809,N,00708.1214,E,19.5,332.1,230913,0.4,E,A*22
$GPRMC,162852,A,5040.9860,N,00708.1180,E,19.8,339.3,230913,0.4,E,A*24
$GPRMC,162853,A,5040.9915,N,00708.1150,E,20.8,341.0,230913,0.4,E,A*2D
$GPRMC,162854,A,5040.9972,N,00708.1120,E,21.5,342.4,230913,0.4,E,A*27
$GPRMC,162855,A,5041.0030,N,00708.1093,E,21.6,342.1,230913,0.4,E,A*2E
$GPRMC,162856,A,5041.0087,N,00708.1067,E,20.6,342.6,230913,0.4,E,A*2C
$GPRMC,162857,A,5041.0141,N,00708.1042,E,19.6,343.6,230913,0.4,E,A*2A
$GPRMC,162858,A,5041.0193,N,00708.1018,E,19.1,342.9,230913,0.4,E,A*2C
$GPRMC,162859,A,5041.0242,N,00708.0992,E,17.6,338.0,230913,0.4,E,A*25
$GPRMC,162900,A,5041.0285,N,00708.0956,E,18.0,323.7,230913,0.4,E,A*2F
$GPRMC,162901,A,5041.0320,N,00708.0904,E,17.6,311.3,230913,0.4,E,A*2B
$GPRMC,162902,A,5041.0345,N,00708.0837,E,18.7,299.2,230913,0.4,E,A*24
$GPRMC,162903,A,5041.0371,N,00708.0762,E,19.7,299.9,230913,0.4,E,A*27
$GPRMC,162904,A,5041.0400,N,00708.0684,E,20.9,300.9,230913,0.4,E,A*2D
$GPRMC,162905,A,5041.0429,N,00708.0602,E,21.4,299.0,230913,0.4,E,A*2D
$GPRMC,162906,A,5041.0458,N,00708.0517,E,21.9,298.9,230913,0.4,E,A*2A
$GPRMC,162907,A,5041.0486,N,00708.0432,E,22.1,297.4,230913,0.4,E,A*27
$GPRMC,162908,A,5041.0515,N,00708.0345,E,22.7,297.9,230913,0.4,E,A*2F
$GPRMC,162909,A,5041.0545,N,00708.0256,E,22.9,298.6,230913,0.4,E,A*26
$GPRMC,162910,A,5041.0578,N,00708.0169,E,23.6,303.5,230913,0.4,E,A*21
$GPRMC,162911,A,5041.0609,N,00708.0083,E,22.1,297.5,230913,0.4,E,A*2A
$GPRMC,162912,A,5041.0636,N,00707.9996,E,21.9,297.2,230913,0.4,E,A*22
$GPRMC,162913,A,5041.0664,N,00707.9911,E,21.3,297.0,230913,0.4,E,A*23
$GPRMC,162914,A,5041.0690,N,00707.9829,E,20.7,295.8,230913,0.4,E,A*2A
$GPRMC,162915,A,5041.0715,N,00707.9749,E,20.0,297.8,230913,0.4,E,A*2B
$GPRMC,162916,A,5041.0742,N,00707.9672,E,19.7,299.7,230913,0.4,E,A*2F
$GPRMC,162917,A,5041.0770,N,00707.9596,E,19.6,299.6,230913,0.4,E,A*26
$GPRMC,162918,A,5041.0794,N,00707.9523,E,18.3,298.5,230913,0.4,E,A*2B
$IWEVENT,65538,'Sammeln Start',7.132538,50.684657
$GPRMC,162919,A,5041.0816,N,00707.9455,E,17.4,298.6,230913,0.4,E,A*24
$GPRMC,162920,A,5041.0836,N,00707.9393,E,14.1,298.2,230913,0.4,E,A*23
$IWEVENT,65540,'Jetzt rechts sammeln',7.132322,50.684727
$GPRMC,162921,A,5041.0850,N,00707.9341,E,12.3,291.8,230913,0.4,E,A*2A
$GPRMC,162922,A,5041.0858,N,00707.9290,E,11.6,278.1,230913,0.4,E,A*24
$GPRMC,162923,A,5041.0859,N,00707.9239,E,10.9,269.8,230913,0.4,E,A*20
$GPRMC,162924,A,5041.0854,N,00707.9188,E,12.4,253.2,230913,0.4,E,A*2F
$GPRMC,162925,A,5041.0840,N,00707.9131,E,15.7,246.5,230913,0.4,E,A*2E
$GPRMC,162926,A,5041.0821,N,00707.9066,E,16.2,244.2,230913,0.4,E,A*2A
$GPRMC,162927,A,5041.0797,N,00707.9000,E,16.3,243.5,230913,0.4,E,A*28
$GPRMC,162928,A,5041.0774,N,00707.8935,E,16.7,245.2,230913,0.4,E,A*21
$GPRMC,162929,A,5041.0752,N,00707.8864,E,18.3,244.1,230913,0.4,E,A*29
$GPRMC,162930,A,5041.0727,N,00707.8789,E,19.6,241.8,230913,0.4,E,A*27
$GPRMC,162931,A,5041.0702,N,00707.8714,E,19.2,242.9,230913,0.4,E,A*23
$GPRMC,162932,A,5041.0676,N,00707.8639,E,19.0,243.7,230913,0.4,E,A*21
$GPRMC,162933,A,5041.0651,N,00707.8568,E,18.8,243.4,230913,0.4,E,A*28
$GPRMC,162934,A,5041.0626,N,00707.8493,E,18.9,244.2,230913,0.4,E,A*2A
$GPRMC,162935,A,5041.0601,N,00707.8417,E,18.7,241.8,230913,0.4,E,A*23
$GPRMC,162936,A,5041.0575,N,00707.8343,E,18.6,240.9,230913,0.4,E,A*27
$GPRMC,162937,A,5041.0552,N,00707.8274,E,16.6,243.0,230913,0.4,E,A*22
$GPRMC,162938,A,5041.0532,N,00707.8214,E,14.7,241.9,230913,0.4,E,A*25
$GPRMC,162939,A,5041.0516,N,00707.8163,E,11.9,242.9,230913,0.4,E,A*29
$GPRMC,162940,A,5041.0502,N,00707.8124,E,9.0,239.6,230913,0.4,E,A*12
$GPRMC,162941,A,5041.0493,N,00707.8095,E,5.7,243.6,230913,0.4,E,A*17
$GPRMC,162942,A,5041.0486,N,00707.8072,E,4.9,246.4,230913,0.4,E,A*11
$GPRMC,162943,A,5041.0481,N,00707.8053,E,4.2,245.8,230913,0.4,E,A*10
$IWEVENT,1,'Hier rückwärts',7.130088,50.684135
$GPRMC,162944,A,5041.0477,N,00707.8039,E,3.7,250.2,230913,0.4,E,A*1E
$GPRMC,162945,A,5041.0476,N,00707.8027,E,2.9,250.2,230913,0.4,E,A*1E
$GPRMC,162946,A,5041.0477,N,00707.8014,E,3.0,291.8,230913,0.4,E,A*13
$GPRMC,162947,A,5041.0480,N,00707.8003,E,4.9,314.3,230913,0.4,E,A*15
$GPRMC,162948,A,5041.0489,N,00707.7987,E,7.2,326.3,230913,0.4,E,A*10
$GPRMC,162949,A,5041.0510,N,00707.7972,E,10.3,329.6,230913,0.4,E,A*27
$GPRMC,162950,A,5041.0537,N,00707.7953,E,10.7,332.0,230913,0.4,E,A*21
$GPRMC,162951,A,5041.0565,N,00707.7929,E,12.3,331.3,230913,0.4,E,A*2C
$GPRMC,162952,A,5041.0595,N,00707.7903,E,12.6,329.6,230913,0.4,E,A*21
$GPRMC,162953,A,5041.0626,N,00707.7875,E,12.9,329.7,230913,0.4,E,A*25
$GPRMC,162954,A,5041.0656,N,00707.7848,E,11.6,329.4,230913,0.4,E,A*24
$GPRMC,162955,A,5041.0686,N,00707.7821,E,11.3,329.4,230913,0.4,E,A*22
$GPRMC,162956,A,5041.0713,N,00707.7796,E,9.8,328.3,230913,0.4,E,A*1B
$GPRMC,162957,A,5041.0734,N,00707.7775,E,8.6,328.3,230913,0.4,E,A*1D
$GPRMC,162958,A,5041.0752,N,00707.7758,E,7.3,330.6,230913,0.4,E,A*1B
$GPRMC,162959,A,5041.0768,N,00707.7747,E,6.0,348.6,230913,0.4,E,A*10
$GPRMC,163000,A,5041.0782,N,00707.7745,E,5.8,5.1,230913,0.4,E,A*14
$GPRMC,163001,A,5041.0794,N,00707.7753,E,4.9,30.9,230913,0.4,E,A*2B
$GPRMC,163044,A,5041.0801,N,00707.7764,E,6.8,213.3,230913,0.4,E,A*17
$GPRMC,163045,A,5041.0782,N,00707.7753,E,6.7,182.5,230913,0.4,E,A*14
$GPRMC,163046,A,5041.0764,N,00707.7757,E,6.9,161.5,230913,0.4,E,A*18
$GPRMC,163047,A,5041.0742,N,00707.7773,E,9.6,151.0,230913,0.4,E,A*1D
$GPRMC,163048,A,5041.0713,N,00707.7799,E,11.6,149.2,230913,0.4,E,A*20
$GPRMC,163049,A,5041.0682,N,00707.7827,E,12.4,150.9,230913,0.4,E,A*20
$GPRMC,163050,A,5041.0648,N,00707.7857,E,13.9,150.7,230913,0.4,E,A*2B
$GPRMC,163051,A,5041.0613,N,00707.7887,E,14.0,150.9,230913,0.4,E,A*29
$GPRMC,163052,A,5041.0579,N,00707.7918,E,13.3,150.8,230913,0.4,E,A*27
$GPRMC,163053,A,5041.0545,N,00707.7946,E,12.5,148.3,230913,0.4,E,A*27
$GPRMC,163054,A,5041.0518,N,00707.7971,E,10.9,149.4,230913,0.4,E,A*24
$GPRMC,163055,A,5041.0496,N,00707.7993,E,7.3,146.0,230913,0.4,E,A*19
$GPRMC,163056,A,5041.0481,N,00707.8008,E,5.0,147.9,230913,0.4,E,A*11
$GPRMC,163057,A,5041.0472,N,00707.8016,E,3.1,143.2,230913,0.4,E,A*1B
$GPRMC,163058,A,5041.0465,N,00707.8023,E,2.9,143.2,230913,0.4,E,A*1D
$GPRMC,163059,A,5041.0459,N,00707.8026,E,1.5,143.2,230913,0.4,E,A*19
$GPRMC,163100,A,5041.0451,N,00707.8028,E,2.5,143.2,230913,0.4,E,A*11
$GPRMC,163101,A,5041.0441,N,00707.8028,E,2.9,143.2,230913,0.4,E,A*1D
$GPRMC,163102,A,5041.0430,N,00707.8017,E,6.0,226.2,230913,0.4,E,A*19
$GPRMC,163103,A,5041.0419,N,00707.7988,E,9.0,245.2,230913,0.4,E,A*19
$GPRMC,163104,A,5041.0403,N,00707.7939,E,13.2,241.2,230913,0.4,E,A*22
$GPRMC,163105,A,5041.0383,N,00707.7879,E,15.2,244.5,230913,0.4,E,A*2D
$GPRMC,163106,A,5041.0362,N,00707.7814,E,17.7,242.3,230913,0.4,E,A*2D
$GPRMC,163107,A,5041.0337,N,00707.7740,E,20.5,242.9,230913,0.4,E,A*2E
$GPRMC,163108,A,5041.0311,N,00707.7658,E,21.3,242.9,230913,0.4,E,A*2A
$GPRMC,163109,A,5041.0282,N,00707.7569,E,23.0,243.4,230913,0.4,E,A*2C
$GPRMC,163110,A,5041.0251,N,00707.7474,E,24.3,243.3,230913,0.4,E,A*24
$GPRMC,163111,A,5041.0220,N,00707.7374,E,25.6,242.9,230913,0.4,E,A*2B
$GPRMC,163112,A,5041.0188,N,00707.7273,E,25.5,243.0,230913,0.4,E,A*24
$GPRMC,163113,A,5041.0158,N,00707.7172,E,24.9,244.4,230913,0.4,E,A*24
$GPRMC,163114,A,5041.0126,N,00707.7073,E,25.0,242.5,230913,0.4,E,A*25
$GPRMC,163115,A,5041.0096,N,00707.6976,E,24.1,244.3,230913,0.4,E,A*23
$GPRMC,163116,A,5041.0066,N,00707.6883,E,23.2,242.4,230913,0.4,E,A*21
$GPRMC,163117,A,5041.0040,N,00707.6795,E,22.0,243.9,230913,0.4,E,A*23
$GPRMC,163118,A,5041.0013,N,00707.6713,E,19.2,244.3,230913,0.4,E,A*23
$GPRMC,163119,A,5040.9989,N,00707.6641,E,19.1,244.0,230913,0.4,E,A*26
$GPRMC,163120,A,5040.9965,N,00707.6566,E,18.6,244.0,230913,0.4,E,A*2E
$GPRMC,163121,A,5040.9941,N,00707.6492,E,17.8,243.6,230913,0.4,E,A*23
$GPRMC,163122,A,5040.9921,N,00707.6427,E,14.7,245.8,230913,0.4,E,A*2C
$GPRMC,163123,A,5040.9904,N,00707.6373,E,12.2,244.5,230913,0.4,E,A*23
$GPRMC,163124,A,5040.9891,N,00707.6328,E,10.1,244.0,230913,0.4,E,A*23
$GPRMC,163125,A,5040.9874,N,00707.6294,E,9.4,215.6,230913,0.4,E,A*10
$GPRMC,163126,A,5040.9851,N,00707.6281,E,8.7,183.9,230913,0.4,E,A*11
$GPRMC,163127,A,5040.9829,N,00707.6284,E,7.8,163.2,230913,0.4,E,A*1F
$GPRMC,163128,A,5040.9808,N,00707.6295,E,7.4,154.7,230913,0.4,E,A*1E
$GPRMC,163129,A,5040.9786,N,00707.6309,E,8.9,159.6,230913,0.4,E,A*1C
$GPRMC,163143,A,5040.9639,N,00707.6432,E,7.2,146.4,230913,0.4,E,A*12
$GPRMC,163144,A,5040.9623,N,00707.6450,E,5.2,133.3,230913,0.4,E,A*1D
$GPRMC,163145,A,5040.9615,N,00707.6469,E,3.1,95.1,230913,0.4,E,A*29
$GPRMC,163146,A,5040.9612,N,00707.6481,E,1.2,95.1,230913,0.4,E,A*2A
$GPRMC,163147,A,5040.9608,N,00707.6493,E,1.7,95.1,230913,0.4,E,A*26
$GPRMC,163148,A,5040.9605,N,00707.6508,E,2.5,95.1,230913,0.4,E,A*26
$GPRMC,163149,A,5040.9604,N,00707.6527,E,4.7,87.4,230913,0.4,E,A*29
$GPRMC,163150,A,5040.9608,N,00707.6554,E,7.9,68.9,230913,0.4,E,A*28
$GPRMC,163151,A,5040.9616,N,00707.6592,E,9.7,69.1,230913,0.4,E,A*25
$GPRMC,163152,A,5040.9627,N,00707.6634,E,10.0,65.3,230913,0.4,E,A*1A
$GPRMC,163254,A,5040.9654,N,00707.6654,E,9.3,259.8,230913,0.4,E,A*10
$GPRMC,163255,A,5040.9647,N,00707.6619,E,8.2,249.1,230913,0.4,E,A*12
$GPRMC,163256,A,5040.9638,N,00707.6591,E,5.8,247.1,230913,0.4,E,A*13
$GPRMC,163257,A,5040.9631,N,00707.6568,E,4.3,254.7,230913,0.4,E,A*13
$GPRMC,163258,A,5040.9628,N,00707.6548,E,4.1,265.8,230913,0.4,E,A*19
$GPRMC,163259,A,5040.9627,N,00707.6531,E,4.1,285.0,230913,0.4,E,A*1F
$GPRMC,163300,A,5040.9631,N,00707.6512,E,5.0,305.1,230913,0.4,E,A*1C
$GPRMC,163301,A,5040.9641,N,00707.6493,E,6.0,325.4,230913,0.4,E,A*16
$GPRMC,163302,A,5040.9656,N,00707.6477,E,6.5,332.1,230913,0.4,E,A*1F
$GPRMC,163303,A,5040.9670,N,00707.6464,E,6.5,332.0,230913,0.4,E,A*19
$GPRMC,163304,A,5040.9686,N,00707.6452,E,6.3,329.5,230913,0.4,E,A*1B
$GPRMC,163305,A,5040.9700,N,00707.6443,E,4.5,335.6,230913,0.4,E,A*1F
$GPRMC,163306,A,5040.9710,N,00707.6437,E,3.3,329.5,230913,0.4,E,A*11
$GPRMC,163307,A,5040.9715,N,00707.6433,E,1.6,329.5,230913,0.4,E,A*16
$GPRMC,163308,A,5040.9715,N,00707.6433,E,0.0,329.5,230913,0.4,E,A*1E
$GPRMC,163309,A,5040.9715,N,00707.6433,E,0.0,329.5,230913,0.4,E,A*1F
$GPRMC,163310,A,5040.9715,N,00707.6433,E,0.0,329.5,230913,0.4,E,A*17
$GPRMC,163311,A,5040.9715,N,00707.6433,E,0.0,329.5,230913,0.4,E,A*16
$GPRMC,163312,A,5040.9715,N,00707.6433,E,0.0,329.5,230913,0.4,E,A*15
$GPRMC,163313,A,5040.9715,N,00707.6433,E,0.0,329.5,230913,0.4,E,A*14
$GPRMC,163314,A,5040.9719,N,00707.6433,E,2.4,329.5,230913,0.4,E,A*19
$GPRMC,163315,A,5040.9731,N,00707.6426,E,6.4,339.0,230913,0.4,E,A*16
$GPRMC,163316,A,5040.9752,N,00707.6412,E,8.2,334.6,230913,0.4,E,A*14
$GPRMC,163317,A,5040.9776,N,00707.6395,E,9.0,335.6,230913,0.4,E,A*19
$GPRMC,163318,A,5040.9800,N,00707.6378,E,9.0,335.6,230913,0.4,E,A*1B
$GPRMC,163319,A,5040.9820,N,00707.6364,E,7.5,335.6,230913,0.4,E,A*1E
$GPRMC,163320,A,5040.9837,N,00707.6353,E,5.9,338.3,230913,0.4,E,A*10
$GPRMC,163321,A,5040.9850,N,00707.6347,E,3.5,346.1,230913,0.4,E,A*14
$GPRMC,163322,A,5040.9860,N,00707.6344,E,1.4,346.1,230913,0.4,E,A*14
$GPRMC,163323,A,5040.9863,N,00707.6343,E,0.6,346.1,230913,0.4,E,A*12
$GPRMC,163324,A,5040.9868,N,00707.6343,E,1.1,346.1,230913,0.4,E,A*18
$GPRMC,163325,A,5040.9872,N,00707.6340,E,1.1,346.1,230913,0.4,E,A*11
$GPRMC,163326,A,5040.9872,N,00707.6340,E,0.0,346.1,230913,0.4,E,A*12
$GPRMC,163327,A,5040.9873,N,00707.6341,E,0.8,346.1,230913,0.4,E,A*1B
$GPRMC,163328,A,5040.9873,N,00707.6341,E,0.0,346.1,230913,0.4,E,A*1C
$GPRMC,163329,A,5040.9873,N,00707.6341,E,1.5,346.1,230913,0.4,E,A*19
$GPRMC,163330,A,5040.9876,N,00707.6345,E,3.4,38.5,230913,0.4,E,A*2D
$GPRMC,163331,A,5040.9883,N,00707.6361,E,5.4,62.9,230913,0.4,E,A*25
$GPRMC,163332,A,5040.9889,N,00707.6385,E,6.9,66.6,230913,0.4,E,A*23
$GPRMC,163333,A,5040.9899,N,00707.6422,E,10.9,64.5,230913,0.4,E,A*1F
$GPRMC,163334,A,5040.9914,N,00707.6469,E,11.7,63.8,230913,0.4,E,A*16
$GPRMC,163335,A,5040.9931,N,00707.6521,E,15.1,63.7,230913,0.4,E,A*10
$GPRMC,163336,A,5040.9950,N,00707.6583,E,16.5,63.2,230913,0.4,E,A*1E
$GPRMC,163337,A,5040.9972,N,00707.6648,E,17.0,59.7,230913,0.4,E,A*13
$GPRMC,163338,A,5040.9995,N,00707.6718,E,18.2,63.3,230913,0.4,E,A*11
$GPRMC,163339,A,5041.0019,N,00707.6796,E,20.1,63.6,230913,0.4,E,A*1E
$GPRMC,163340,A,5041.0045,N,00707.6879,E,22.3,62.9,230913,0.4,E,A*19
$GPRMC,163341,A,5041.0074,N,00707.6969,E,23.4,63.0,230913,0.4,E,A*14
$GPRMC,163342,A,5041.0104,N,00707.7061,E,23.7,62.3,230913,0.4,E,A*10
$GPRMC,163343,A,5041.0134,N,00707.7155,E,24.0,62.0,230913,0.4,E,A*17
$IWEVENT,65543,'Jetzt keine Seite sammeln',7.128592,50.683557
$GPRMC,163344,A,5041.0165,N,00707.7251,E,24.8,62.5,230913,0.4,E,A*1E
$GPRMC,163345,A,5041.0198,N,00707.7349,E,25.0,62.7,230913,0.4,E,A*1E
$GPRMC,163346,A,5041.0231,N,00707.7449,E,25.2,62.5,230913,0.4,E,A*1A
$GPRMC,163347,A,5041.0264,N,00707.7548,E,25.1,62.1,230913,0.4,E,A*1C
$GPRMC,163348,A,5041.0295,N,00707.7646,E,24.7,62.3,230913,0.4,E,A*15
$GPRMC,163349,A,5041.0326,N,00707.7743,E,24.5,62.8,230913,0.4,E,A*10
$GPRMC,163350,A,5041.0357,N,00707.7838,E,24.4,62.8,230913,0.4,E,A*1C
$GPRMC,163351,A,5041.0387,N,00707.7932,E,24.5,62.1,230913,0.4,E,A*13
$GPRMC,163352,A,5041.0417,N,00707.8028,E,24.4,63.0,230913,0.4,E,A*12
$GPRMC,163353,A,5041.0447,N,00707.8124,E,24.4,63.3,230913,0.4,E,A*18
$GPRMC,163354,A,5041.0478,N,00707.8218,E,23.8,62.3,230913,0.4,E,A*15
$GPRMC,163355,A,5041.0507,N,00707.8310,E,22.9,63.2,230913,0.4,E,A*14
$GPRMC,163356,A,5041.0535,N,00707.8399,E,22.1,62.4,230913,0.4,E,A*18
$GPRMC,163357,A,5041.0563,N,00707.8483,E,21.4,62.0,230913,0.4,E,A*14
$GPRMC,163358,A,5041.0590,N,00707.8565,E,20.6,61.9,230913,0.4,E,A*17
$GPRMC,163359,A,5041.0617,N,00707.8645,E,20.3,60.7,230913,0.4,E,A*11
$GPRMC,163400,A,5041.0642,N,00707.8723,E,19.6,62.4,230913,0.4,E,A*15
$IWEVENT,65541,'Jetzt links sammeln',7.131205,50.684403
$GPRMC,163401,A,5041.0665,N,00707.8799,E,19.4,62.6,230913,0.4,E,A*10
$GPRMC,163402,A,5041.0690,N,00707.8874,E,18.9,63.3,230913,0.4,E,A*1D
$GPRMC,163403,A,5041.0714,N,00707.8949,E,18.6,62.5,230913,0.4,E,A*16
$GPRMC,163404,A,5041.0737,N,00707.9022,E,18.3,62.1,230913,0.4,E,A*14
$GPRMC,163405,A,5041.0759,N,00707.9091,E,17.5,60.5,230913,0.4,E,A*1A
$GPRMC,163406,A,5041.0782,N,00707.9158,E,17.8,60.4,230913,0.4,E,A*17
$GPRMC,163407,A,5041.0801,N,00707.9229,E,17.2,73.6,230913,0.4,E,A*1D
$GPRMC,163408,A,5041.0810,N,00707.9303,E,16.4,85.8,230913,0.4,E,A*1B
$GPRMC,163409,A,5041.0806,N,00707.9375,E,17.1,102.9,230913,0.4,E,A*27
$GPRMC,163410,A,5041.0788,N,00707.9448,E,18.1,116.7,230913,0.4,E,A*2B
$GPRMC,163411,A,5041.0761,N,00707.9522,E,19.4,120.1,230913,0.4,E,A*27
$IWEVENT,1,'Da vorne über die Mauer',7.132537,50.684602
$GPRMC,163412,A,5041.0733,N,00707.9600,E,20.4,117.5,230913,0.4,E,A*2A
$GPRMC,163413,A,5041.0706,N,00707.9680,E,20.3,117.6,230913,0.4,E,A*21
$GPRMC,163414,A,5041.0679,N,00707.9757,E,19.2,117.9,230913,0.4,E,A*20
$GPRMC,163415,A,5041.0654,N,00707.9832,E,18.8,117.9,230913,0.4,E,A*29
$GPRMC,163416,A,5041.0629,N,00707.9900,E,17.2,119.1,230913,0.4,E,A*23
$GPRMC,163417,A,5041.0608,N,00707.9960,E,14.1,116.3,230913,0.4,E,A*2A
$GPRMC,163418,A,5041.0591,N,00708.0008,E,11.5,118.2,230913,0.4,E,A*29
$GPRMC,163419,A,5041.0577,N,00708.0048,E,9.2,116.0,230913,0.4,E,A*16
$IWEVENT,1,'Hier rückwärts',7.133413,50.684295
$GPRMC,163420,A,5041.0565,N,00708.0080,E,7.5,121.7,230913,0.4,E,A*11
$GPRMC,163421,A,5041.0550,N,00708.0098,E,6.1,148.5,230913,0.4,E,A*17
$GPRMC,163422,A,5041.0534,N,00708.0102,E,4.8,180.8,230913,0.4,E,A*16
$GPRMC,163423,A,5041.0519,N,00708.0094,E,3.9,209.2,230913,0.4,E,A*18
$GPRMC,163424,A,5041.0508,N,00708.0079,E,5.4,229.6,230913,0.4,E,A*11
$GPRMC,163425,A,5041.0499,N,00708.0051,E,8.1,248.2,230913,0.4,E,A*18
$GPRMC,163426,A,5041.0487,N,00708.0008,E,10.7,246.5,230913,0.4,E,A*2E
$GPRMC,163427,A,5041.0476,N,00707.9959,E,12.2,247.3,230913,0.4,E,A*2A
$GPRMC,163428,A,5041.0463,N,00707.9907,E,12.6,250.2,230913,0.4,E,A*29
$GPRMC,163429,A,5041.0448,N,00707.9850,E,15.2,246.7,230913,0.4,E,A*23
$GPRMC,163430,A,5041.0430,N,00707.9789,E,15.1,247.0,230913,0.4,E,A*2A
$GPRMC,163431,A,5041.0415,N,00707.9728,E,14.9,247.7,230913,0.4,E,A*29
$GPRMC,163432,A,5041.0400,N,00707.9664,E,15.7,247.9,230913,0.4,E,A*26
$GPRMC,163433,A,5041.0384,N,00707.9597,E,15.8,247.5,230913,0.4,E,A*20
$GPRMC,163434,A,5041.0366,N,00707.9530,E,16.7,244.1,230913,0.4,E,A*2D
$GPRMC,163435,A,5041.0349,N,00707.9463,E,16.1,245.3,230913,0.4,E,A*23
$GPRMC,163436,A,5041.0332,N,00707.9398,E,15.9,245.1,230913,0.4,E,A*26
$GPRMC,163437,A,5041.0314,N,00707.9335,E,15.9,244.3,230913,0.4,E,A*27
$GPRMC,163438,A,5041.0294,N,00707.9272,E,15.9,245.4,230913,0.4,E,A*25
$GPRMC,163439,A,5041.0275,N,00707.9208,E,15.6,245.6,230913,0.4,E,A*2B
$GPRMC,163440,A,5041.0256,N,00707.9144,E,15.3,244.4,230913,0.4,E,A*29
$GPRMC,163441,A,5041.0237,N,00707.9083,E,15.3,244.5,230913,0.4,E,A*24
$GPRMC,163442,A,5041.0218,N,00707.9019,E,15.4,244.3,230913,0.4,E,A*28
$GPRMC,163443,A,5041.0200,N,00707.8955,E,15.3,244.9,230913,0.4,E,A*2D
$GPRMC,163444,A,5041.0182,N,00707.8892,E,15.7,245.2,230913,0.4,E,A*27
$GPRMC,163445,A,5041.0164,N,00707.8828,E,15.7,245.1,230913,0.4,E,A*2C
$GPRMC,163446,A,5041.0146,N,00707.8764,E,15.8,245.0,230913,0.4,E,A*26
$GPRMC,163447,A,5041.0126,N,00707.8701,E,15.9,244.6,230913,0.4,E,A*24
$GPRMC,163448,A,5041.0106,N,00707.8638,E,15.9,243.9,230913,0.4,E,A*2A
$GPRMC,163449,A,5041.0087,N,00707.8577,E,14.9,242.9,230913,0.4,E,A*2B
$GPRMC,163450,A,5041.0068,N,00707.8518,E,14.9,243.1,230913,0.4,E,A*22
$GPRMC,163451,A,5041.0050,N,00707.8458,E,15.0,244.3,230913,0.4,E,A*20
$GPRMC,163452,A,5041.0032,N,00707.8400,E,14.5,243.7,230913,0.4,E,A*2D
$GPRMC,163453,A,5041.0014,N,00707.8343,E,14.4,244.0,230913,0.4,E,A*29
$GPRMC,163454,A,5040.9998,N,00707.8285,E,14.3,245.1,230913,0.4,E,A*27
$GPRMC,163455,A,5040.9982,N,00707.8228,E,13.9,245.0,230913,0.4,E,A*26
$GPRMC,163456,A,5040.9967,N,00707.8175,E,12.8,244.3,230913,0.4,E,A*27
$GPRMC,163457,A,5040.9953,N,00707.8125,E,12.2,243.9,230913,0.4,E,A*23
$GPRMC,163458,A,5040.9940,N,00707.8082,E,10.0,245.2,230913,0.4,E,A*2F
$GPRMC,163459,A,5040.9928,N,00707.8048,E,7.8,238.5,230913,0.4,E,A*15
$GPRMC,163500,A,5040.9913,N,00707.8020,E,8.7,226.6,230913,0.4,E,A*12
$GPRMC,163501,A,5040.9894,N,00707.8004,E,6.9,186.5,230913,0.4,E,A*11
$GPRMC,163502,A,5040.9894,N,00707.8004,E,0.0,186.5,230913,0.4,E,A*1D
$GPRMC,163503,A,5040.9894,N,00707.8004,E,0.0,186.5,230913,0.4,E,A*1C
$GPRMC,163504,A,5040.9894,N,00707.8004,E,0.0,186.5,230913,0.4,E,A*1B
$GPRMC,163505,A,5040.9894,N,00707.8004,E,0.0,186.5,230913,0.4,E,A*1A
$GPRMC,163506,A,5040.9898,N,00707.7999,E,3.3,323.3,230913,0.4,E,A*1C
$GPRMC,163507,A,5040.9901,N,00707.7990,E,3.6,295.7,230913,0.4,E,A*18
$IWEVENT,65540,'Jetzt rechts sammeln',7.129983,50.683168
$GPRMC,163514,A,5040.9901,N,00707.7983,E,0.9,295.7,230913,0.4,E,A*14
$GPRMC,163515,A,5040.9905,N,00707.7988,E,3.3,38.8,230913,0.4,E,A*29
$GPRMC,163516,A,5040.9913,N,00707.8002,E,6.6,45.8,230913,0.4,E,A*23
$GPRMC,163517,A,5040.9931,N,00707.8026,E,8.8,43.4,230913,0.4,E,A*2E
$GPRMC,163518,A,5040.9950,N,00707.8056,E,10.2,55.6,230913,0.4,E,A*17
$GPRMC,163519,A,5040.9965,N,00707.8097,E,10.6,61.7,230913,0.4,E,A*1F
$GPRMC,163520,A,5040.9977,N,00707.8140,E,10.1,63.4,230913,0.4,E,A*1B
$GPRMC,163521,A,5040.9987,N,00707.8181,E,8.9,63.8,230913,0.4,E,A*25
$GPRMC,163522,A,5040.9996,N,00707.8218,E,8.2,64.7,230913,0.4,E,A*26
$GPRMC,163523,A,5041.0002,N,00707.8251,E,7.2,63.4,230913,0.4,E,A*2D
$GPRMC,163524,A,5041.0008,N,00707.8283,E,7.1,62.8,230913,0.4,E,A*21
$GPRMC,163525,A,5041.0013,N,00707.8314,E,7.0,62.3,230913,0.4,E,A*2F
$GPRMC,163526,A,5041.0019,N,00707.8344,E,7.0,61.9,230913,0.4,E,A*2A
$GPRMC,163527,A,5041.0026,N,00707.8373,E,6.8,63.3,230913,0.4,E,A*22
$GPRMC,163528,A,5041.0033,N,00707.8402,E,6.9,63.0,230913,0.4,E,A*2A
$GPRMC,163529,A,5041.0041,N,00707.8430,E,7.5,61.4,230913,0.4,E,A*24
$GPRMC,163530,A,5041.0051,N,00707.8462,E,8.5,63.8,230913,0.4,E,A*2B
$GPRMC,163531,A,5041.0062,N,00707.8499,E,9.2,61.4,230913,0.4,E,A*26
$GPRMC,163532,A,5041.0073,N,00707.8538,E,9.4,61.0,230913,0.4,E,A*2D
$GPRMC,163533,A,5041.0084,N,00707.8577,E,10.2,62.2,230913,0.4,E,A*10
$GPRMC,163534,A,5041.0098,N,00707.8620,E,11.5,62.2,230913,0.4,E,A*1D
$GPRMC,163535,A,5041.0114,N,00707.8669,E,12.4,63.3,230913,0.4,E,A*16
$GPRMC,163536,A,5041.0127,N,00707.8721,E,12.6,66.8,230913,0.4,E,A*14
$GPRMC,163537,A,5041.0141,N,00707.8777,E,13.7,63.8,230913,0.4,E,A*13
$GPRMC,163538,A,5041.0157,N,00707.8831,E,13.7,62.2,230913,0.4,E,A*1D
$GPRMC,163539,A,5041.0175,N,00707.8884,E,13.3,62.8,230913,0.4,E,A*1C
$GPRMC,163540,A,5041.0191,N,00707.8936,E,12.8,63.6,230913,0.4,E,A*15
$GPRMC,163541,A,5041.0207,N,00707.8988,E,13.2,64.0,230913,0.4,E,A*17
$GPRMC,163542,A,5041.0223,N,00707.9044,E,13.7,63.1,230913,0.4,E,A*19
$GPRMC,163543,A,5041.0239,N,00707.9100,E,14.0,62.5,230913,0.4,E,A*17
$GPRMC,163544,A,5041.0258,N,00707.9157,E,14.7,62.8,230913,0.4,E,A*1F
$GPRMC,163545,A,5041.0277,N,00707.9215,E,15.0,63.2,230913,0.4,E,A*1B
$GPRMC,163546,A,5041.0296,N,00707.9276,E,15.0,63.6,230913,0.4,E,A*16
$GPRMC,163547,A,5041.0313,N,00707.9338,E,15.3,65.1,230913,0.4,E,A*12
$GPRMC,163548,A,5041.0331,N,00707.9402,E,15.8,64.0,230913,0.4,E,A*18
$GPRMC,163549,A,5041.0351,N,00707.9466,E,16.2,62.9,230913,0.4,E,A*1B
$GPRMC,163550,A,5041.0372,N,00707.9531,E,16.1,63.9,230913,0.4,E,A*13
$GPRMC,163551,A,5041.0391,N,00707.9595,E,16.0,65.2,230913,0.4,E,A*1D
$GPRMC,163552,A,5041.0409,N,00707.9659,E,15.6,66.3,230913,0.4,E,A*1C
$GPRMC,163553,A,5041.0426,N,00707.9720,E,15.5,67.5,230913,0.4,E,A*1B
$GPRMC,163554,A,5041.0444,N,00707.9781,E,15.1,65.6,230913,0.4,E,A*16
$GPRMC,163555,A,5041.0461,N,00707.9841,E,14.9,65.7,230913,0.4,E,A*1B
$GPRMC,163556,A,5041.0476,N,00707.9899,E,14.2,66.2,230913,0.4,E,A*16
$GPRMC,163557,A,5041.0490,N,00707.9953,E,13.2,68.5,230913,0.4,E,A*16
$GPRMC,163558,A,5041.0505,N,00708.0002,E,12.2,64.8,230913,0.4,E,A*1F
$GPRMC,163559,A,5041.0519,N,00708.0045,E,10.1,62.9,230913,0.4,E,A*16
$GPRMC,163600,A,5041.0528,N,00708.0076,E,6.3,60.1,230913,0.4,E,A*24
$GPRMC,163601,A,5041.0534,N,00708.0095,E,4.0,67.0,230913,0.4,E,A*22
$GPRMC,163602,A,5041.0535,N,00708.0110,E,3.3,72.3,230913,0.4,E,A*2F
$GPRMC,163603,A,5041.0536,N,00708.0124,E,3.2,77.2,230913,0.4,E,A*2F
$GPRMC,163604,A,5041.0536,N,00708.0142,E,5.5,89.0,230913,0.4,E,A*2A
$GPRMC,163605,A,5041.0533,N,00708.0171,E,8.6,107.5,230913,0.4,E,A*12
$GPRMC,163606,A,5041.0521,N,00708.0211,E,11.1,115.5,230913,0.4,E,A*2B
$GPRMC,163607,A,5041.0504,N,00708.0264,E,14.3,118.4,230913,0.4,E,A*24
$GPRMC,163608,A,5041.0483,N,00708.0324,E,16.6,117.2,230913,0.4,E,A*2E
$GPRMC,163609,A,5041.0461,N,00708.0393,E,18.3,117.6,230913,0.4,E,A*20
$GPRMC,163610,A,5041.0436,N,00708.0466,E,19.4,117.0,230913,0.4,E,A*27
$GPRMC,163611,A,5041.0412,N,00708.0541,E,19.1,116.0,230913,0.4,E,A*20
$GPRMC,163612,A,5041.0388,N,00708.0615,E,18.9,117.7,230913,0.4,E,A*2A
$GPRMC,163613,A,5041.0364,N,00708.0689,E,18.3,116.1,230913,0.4,E,A*21
$GPRMC,163614,A,5041.0343,N,00708.0761,E,17.8,112.0,230913,0.4,E,A*25
$GPRMC,163615,A,5041.0322,N,00708.0829,E,16.7,118.7,230913,0.4,E,A*23
$GPRMC,163616,A,5041.0299,N,00708.0888,E,14.7,122.1,230913,0.4,E,A*27
$GPRMC,163617,A,5041.0273,N,00708.0935,E,13.8,138.7,230913,0.4,E,A*20
$GPRMC,163618,A,5041.0242,N,00708.0971,E,13.6,149.2,230913,0.4,E,A*20
$GPRMC,163619,A,5041.0206,N,00708.0996,E,13.5,160.5,230913,0.4,E,A*27
$GPRMC,163620,A,5041.0166,N,00708.1015,E,14.7,162.9,230913,0.4,E,A*20
$GPRMC,163621,A,5041.0124,N,00708.1034,E,15.6,163.0,230913,0.4,E,A*2C
$GPRMC,163622,A,5041.0079,N,00708.1054,E,16.2,162.7,230913,0.4,E,A*21
$GPRMC,163623,A,5041.0034,N,00708.1075,E,16.3,161.7,230913,0.4,E,A*28
$GPRMC,163624,A,5040.9988,N,00708.1098,E,17.3,160.0,230913,0.4,E,A*2D
$GPRMC,163625,A,5040.9942,N,00708.1119,E,16.8,162.0,230913,0.4,E,A*2A
$GPRMC,163626,A,5040.9899,N,00708.1140,E,14.7,161.0,230913,0.4,E,A*2C
$IWEVENT,65539,'Transfer Start',7.135233,50.683165
$GPRMC,163627,A,5040.9859,N,00708.1164,E,14.2,159.4,230913,0.4,E,A*2D
$GPRMC,163628,A,5040.9821,N,00708.1184,E,13.0,159.3,230913,0.4,E,A*21
$GPRMC,163629,A,5040.9787,N,00708.1207,E,13.3,152.1,230913,0.4,E,A*21
$GPRMC,163630,A,5040.9752,N,00708.1239,E,15.4,144.4,230913,0.4,E,A*2F
$GPRMC,163631,A,5040.9715,N,00708.1282,E,16.7,141.7,230913,0.4,E,A*2B
$GPRMC,163632,A,5040.9676,N,00708.1334,E,18.7,139.7,230913,0.4,E,A*21
$GPRMC,163633,A,5040.9637,N,00708.1396,E,19.8,132.7,230913,0.4,E,A*28
$GPRMC,163634,A,5040.9602,N,00708.1468,E,20.9,122.1,230913,0.4,E,A*23
$GPRMC,163635,A,5040.9572,N,00708.1548,E,21.3,119.1,230913,0.4,E,A*26
$GPRMC,163636,A,5040.9544,N,00708.1631,E,22.1,117.9,230913,0.4,E,A*2A
$GPRMC,163637,A,5040.9515,N,00708.1717,E,22.5,117.5,230913,0.4,E,A*22
$GPRMC,163638,A,5040.9486,N,00708.1808,E,23.4,116.2,230913,0.4,E,A*21
$GPRMC,163639,A,5040.9456,N,00708.1903,E,23.8,115.3,230913,0.4,E,A*29
$GPRMC,163640,A,5040.9428,N,00708.1997,E,23.2,115.1,230913,0.4,E,A*2B
$GPRMC,163641,A,5040.9397,N,00708.2085,E,22.8,122.9,230913,0.4,E,A*27
$GPRMC,163642,A,5040.9358,N,00708.2165,E,23.0,129.6,230913,0.4,E,A*25
$GPRMC,163643,A,5040.9315,N,00708.2243,E,22.4,133.0,230913,0.4,E,A*22
$GPRMC,163644,A,5040.9270,N,00708.2314,E,21.9,135.3,230913,0.4,E,A*2F
$GPRMC,163645,A,5040.9227,N,00708.2379,E,20.9,136.1,230913,0.4,E,A*27
$GPRMC,163646,A,5040.9187,N,00708.2437,E,18.0,137.7,230913,0.4,E,A*25
$GPRMC,163647,A,5040.9153,N,00708.2486,E,15.9,138.3,230913,0.4,E,A*28
$GPRMC,163648,A,5040.9122,N,00708.2527,E,14.4,137.6,230913,0.4,E,A*2D
$GPRMC,163649,A,5040.9097,N,00708.2575,E,13.9,121.2,230913,0.4,E,A*2D
$GPRMC,163650,A,5040.9092,N,00708.2633,E,13.2,85.3,230913,0.4,E,A*14
$GPRMC,163651,A,5040.9104,N,00708.2686,E,13.2,62.0,230913,0.4,E,A*1F
$GPRMC,163652,A,5040.9127,N,00708.2740,E,17.3,49.5,230913,0.4,E,A*1F
$GPRMC,163653,A,5040.9159,N,00708.2798,E,17.7,47.0,230913,0.4,E,A*1D
$GPRMC,163654,A,5040.9190,N,00708.2850,E,15.5,47.0,230913,0.4,E,A*14
$IWEVENT,65538,'Sammeln Start',7.138083,50.681983
$GPRMC,163655,A,5040.9219,N,00708.2898,E,13.2,42.7,230913,0.4,E,A*10
$GPRMC,163656,A,5040.9243,N,00708.2934,E,10.9,40.4,230913,0.4,E,A*12
$IWEVENT,65540,'Jetzt rechts sammeln',7.138223,50.682072
$GPRMC,163657,A,5040.9266,N,00708.2965,E,10.3,41.2,230913,0.4,E,A*1D
$GPRMC,163658,A,5040.9287,N,00708.2993,E,9.7,40.6,230913,0.4,E,A*2D
$GPRMC,163659,A,5040.9309,N,00708.3021,E,9.8,41.0,230913,0.4,E,A*22
$GPRMC,163700,A,5040.9334,N,00708.3054,E,11.9,39.8,230913,0.4,E,A*1C
$GPRMC,163701,A,5040.9364,N,00708.3092,E,15.6,37.9,230913,0.4,E,A*16
$GPRMC,163702,A,5040.9400,N,00708.3134,E,17.7,35.3,230913,0.4,E,A*16
$GPRMC,163703,A,5040.9441,N,00708.3179,E,18.6,34.8,230913,0.4,E,A*1F
$GPRMC,163704,A,5040.9485,N,00708.3225,E,19.2,35.3,230913,0.4,E,A*15
$GPRMC,163705,A,5040.9529,N,00708.3273,E,19.3,36.3,230913,0.4,E,A*12
$GPRMC,163706,A,5040.9571,N,00708.3321,E,19.5,35.3,230913,0.4,E,A*1F
$GPRMC,163707,A,5040.9614,N,00708.3370,E,19.6,35.7,230913,0.4,E,A*1D
$IWEVENT,65539,'Transfer Start',7.138950,50.682690
$GPRMC,163708,A,5040.9658,N,00708.3420,E,19.7,36.7,230913,0.4,E,A*1A
$GPRMC,163709,A,5040.9701,N,00708.3474,E,19.9,38.7,230913,0.4,E,A*17
$GPRMC,163710,A,5040.9744,N,00708.3532,E,20.7,42.5,230913,0.4,E,A*16
$GPRMC,163711,A,5040.9783,N,00708.3598,E,20.4,50.9,230913,0.4,E,A*10
$GPRMC,163712,A,5040.9820,N,00708.3669,E,21.1,50.9,230913,0.4,E,A*1C
$GPRMC,163713,A,5040.9858,N,00708.3739,E,21.5,47.6,230913,0.4,E,A*1B
$GPRMC,163714,A,5040.9900,N,00708.3807,E,22.0,44.2,230913,0.4,E,A*13
$GPRMC,163715,A,5040.9943,N,00708.3875,E,21.7,44.3,230913,0.4,E,A*15
$GPRMC,163716,A,5040.9988,N,00708.3940,E,21.6,42.6,230913,0.4,E,A*14
$GPRMC,163717,A,5041.0032,N,00708.4005,E,21.3,43.2,230913,0.4,E,A*1A
$GPRMC,163718,A,5041.0074,N,00708.4069,E,21.0,43.9,230913,0.4,E,A*15
$GPRMC,163719,A,5041.0118,N,00708.4130,E,20.7,42.6,230913,0.4,E,A*1A
$GPRMC,163720,A,5041.0161,N,00708.4193,E,21.3,41.5,230913,0.4,E,A*12
$GPRMC,163721,A,5041.0206,N,00708.4254,E,20.4,41.1,230913,0.4,E,A*1B
$GPRMC,163722,A,5041.0245,N,00708.4310,E,18.1,43.1,230913,0.4,E,A*12
$GPRMC,163723,A,5041.0276,N,00708.4364,E,15.4,51.3,230913,0.4,E,A*19
$GPRMC,163724,A,5041.0296,N,00708.4420,E,14.1,73.3,230913,0.4,E,A*13
$GPRMC,163725,A,5041.0295,N,00708.4480,E,15.1,97.9,230913,0.4,E,A*1A
$GPRMC,163726,A,5041.0284,N,00708.4542,E,15.3,114.8,230913,0.4,E,A*2F
$GPRMC,163727,A,5041.0262,N,00708.4604,E,16.3,121.7,230913,0.4,E,A*2D
$GPRMC,163728,A,5041.0241,N,00708.4671,E,16.8,112.4,230913,0.4,E,A*29
$GPRMC,163729,A,5041.0229,N,00708.4740,E,15.5,94.1,230913,0.4,E,A*11
$GPRMC,163730,A,5041.0230,N,00708.4804,E,15.0,82.8,230913,0.4,E,A*15
$GPRMC,163731,A,5041.0248,N,00708.4870,E,16.6,51.1,230913,0.4,E,A*1A
$GPRMC,163732,A,5041.0282,N,00708.4924,E,17.7,38.4,230913,0.4,E,A*15
$GPRMC,163733,A,5041.0326,N,00708.4972,E,18.9,35.8,230913,0.4,E,A*18
$GPRMC,163734,A,5041.0371,N,00708.5018,E,19.1,35.7,230913,0.4,E,A*1F
$GPRMC,163735,A,5041.0416,N,00708.5067,E,19.2,35.5,230913,0.4,E,A*11
$GPRMC,163736,A,5041.0460,N,00708.5116,E,19.3,35.1,230913,0.4,E,A*11
$GPRMC,163737,A,5041.0505,N,00708.5163,E,18.5,35.0,230913,0.4,E,A*16
$IWEVENT,65538,'Sammeln Start',7.141938,50.684175
$GPRMC,163738,A,5041.0545,N,00708.5205,E,16.8,32.9,230913,0.4,E,A*13
$IWEVENT,65541,'Jetzt links sammeln',7.142008,50.684242
$GPRMC,163739,A,5041.0580,N,00708.5247,E,14.1,43.3,230913,0.4,E,A*1A
$GPRMC,163740,A,5041.0603,N,00708.5292,E,12.6,65.3,230913,0.4,E,A*11
$GPRMC,163741,A,5041.0615,N,00708.5343,E,11.8,73.5,230913,0.4,E,A*16
$GPRMC,163742,A,5041.0611,N,00708.5394,E,11.9,107.7,230913,0.4,E,A*2A
$GPRMC,163743,A,5041.0591,N,00708.5446,E,12.9,119.3,230913,0.4,E,A*20
$GPRMC,163744,A,5041.0568,N,00708.5501,E,13.6,118.7,230913,0.4,E,A*28
$GPRMC,163745,A,5041.0546,N,00708.5553,E,14.0,120.4,230913,0.4,E,A*2B
$GPRMC,163746,A,5041.0524,N,00708.5609,E,14.8,119.1,230913,0.4,E,A*27
$GPRMC,163747,A,5041.0501,N,00708.5669,E,17.5,120.8,230913,0.4,E,A*2A
$GPRMC,163748,A,5041.0476,N,00708.5735,E,18.0,120.7,230913,0.4,E,A*29
$GPRMC,163749,A,5041.0450,N,00708.5802,E,18.1,120.0,230913,0.4,E,A*21
$GPRMC,163750,A,5041.0424,N,00708.5874,E,19.2,117.9,230913,0.4,E,A*24
$GPRMC,163751,A,5041.0397,N,00708.5950,E,19.7,120.1,230913,0.4,E,A*24
$GPRMC,163752,A,5041.0368,N,00708.6026,E,19.9,120.4,230913,0.4,E,A*27
$GPRMC,163753,A,5041.0338,N,00708.6098,E,19.7,121.4,230913,0.4,E,A*29
$GPRMC,163754,A,5041.0310,N,00708.6168,E,19.9,120.2,230913,0.4,E,A*23
$GPRMC,163755,A,5041.0284,N,00708.6244,E,18.4,115.8,230913,0.4,E,A*23
$GPRMC,163756,A,5041.0262,N,00708.6320,E,17.5,109.8,230913,0.4,E,A*28
$GPRMC,163757,A,5041.0247,N,00708.6392,E,15.7,101.4,230913,0.4,E,A*23
$GPRMC,163758,A,5041.0241,N,00708.6462,E,14.5,95.9,230913,0.4,E,A*10
$GPRMC,163759,A,5041.0236,N,00708.6525,E,12.9,92.4,230913,0.4,E,A*13
$GPRMC,163800,A,5041.0228,N,00708.6580,E,11.3,101.6,230913,0.4,E,A*20
$GPRMC,163801,A,5041.0214,N,00708.6625,E,10.3,125.1,230913,0.4,E,A*22
$GPRMC,163802,A,5041.0193,N,00708.6659,E,10.3,137.2,230913,0.4,E,A*26
$IWEVENT,65542,'Jetzt beide Seiten sammeln',7.144432,50.683655
$GPRMC,163803,A,5041.0169,N,00708.6660,E,8.5,182.1,230913,0.4,E,A*1A
$GPRMC,163804,A,5041.0145,N,00708.6654,E,7.9,203.0,230913,0.4,E,A*1C
$GPRMC,163805,A,5041.0126,N,00708.6638,E,7.0,209.4,230913,0.4,E,A*15
$GPRMC,163806,A,5041.0107,N,00708.6622,E,7.1,202.8,230913,0.4,E,A*18
$GPRMC,163807,A,5041.0088,N,00708.6605,E,8.1,212.3,230913,0.4,E,A*1F
$GPRMC,163808,A,5041.0066,N,00708.6585,E,9.3,208.2,230913,0.4,E,A*12
$GPRMC,163809,A,5041.0036,N,00708.6564,E,12.5,205.6,230913,0.4,E,A*2C
$GPRMC,163810,A,5041.0003,N,00708.6535,E,14.0,209.2,230913,0.4,E,A*2D
$GPRMC,163811,A,5040.9967,N,00708.6502,E,14.8,211.1,230913,0.4,E,A*29
$GPRMC,163812,A,5040.9930,N,00708.6467,E,15.4,211.2,230913,0.4,E,A*24
$GPRMC,163813,A,5040.9894,N,00708.6432,E,14.6,211.9,230913,0.4,E,A*22
$GPRMC,163814,A,5040.9861,N,00708.6399,E,13.0,213.4,230913,0.4,E,A*27
$GPRMC,163815,A,5040.9831,N,00708.6371,E,11.5,213.5,230913,0.4,E,A*23
$GPRMC,163816,A,5040.9808,N,00708.6345,E,8.4,214.4,230913,0.4,E,A*12
$GPRMC,163817,A,5040.9790,N,00708.6322,E,7.6,220.3,230913,0.4,E,A*11
